{"count":3833,"has_more":true,"map_location":{"lat":30.023882999999998,"lon":31.199915816060837,"panoramio_zoom":7},"photos":[{"height":500,"latitude":29.975231999999998,"longitude":31.138608999999999,"owner_id":1185990,"owner_name":"Nenad Obr","owner_url":"http://www.panoramio.com/user/1185990","photo_file_url":"http://mw2.google.com/mw-panoramio/photos/medium/85020527.jpg","photo_id":85020527,"photo_title":"Great Sphinx of Giza and Pyramid of Khafre","photo_url":"http://www.panoramio.com/photo/85020527","upload_date":"21 January 2013","width":449},{"height":326,"latitude":30.043167,"longitude":31.230783000000002,"owner_id":3805063,"owner_name":"arch.khazarian","owner_url":"http://www.panoramio.com/user/3805063","photo_file_url":"http://mw2.google.com/mw-panoramio/photos/medium/40697819.jpg","photo_id":40697819,"photo_title":"Cairo at Night","photo_url":"http://www.panoramio.com/photo/40697819","upload_date":"13 September 2010","width":500},{"height":353,"latitude":30.030348,"longitude":31.276354000000001,"owner_id":3805063,"owner_name":"arch.khazarian","owner_url":"http://www.panoramio.com/user/3805063","photo_file_url":"http://mw2.google.com/mw-panoramio/photos/medium/35033253.jpg","photo_id":35033253,"photo_title":"St. Simeon Church, Cairo","photo_url":"http://www.panoramio.com/photo/35033253","upload_date":"03 May 2010","width":500},{"height":333,"latitude":29.972483,"longitude":31.128216000000009,"owner_id":6003911,"owner_name":"Silverhead","owner_url":"http://www.panoramio.com/user/6003911","photo_file_url":"http://mw2.google.com/mw-panoramio/photos/medium/59598703.jpg","photo_id":59598703,"photo_title":"Pyramid of Menkaure, Giza, Egypt ","photo_url":"http://www.panoramio.com/photo/59598703","upload_date":"26 September 2011","width":500},{"height":332,"latitude":30.023029999999999,"longitude":31.219024999999988,"owner_id":6003911,"owner_name":"Silverhead","owner_url":"http://www.panoramio.com/user/6003911","photo_file_url":"http://mw2.google.com/mw-panoramio/photos/medium/59855766.jpg","photo_id":59855766,"photo_title":"Four Seasons Hotel, Cairo, Egypt","photo_url":"http://www.panoramio.com/photo/59855766","place_id":"5d26c3728cdcc5cd2dae82fac268a6c0f526f6ff","upload_date":"01 October 2011","width":500},{"height":332,"latitude":30.007719999999999,"longitude":31.204176,"owner_id":2706839,"owner_name":"majasa","owner_url":"http://www.panoramio.com/user/2706839","photo_file_url":"http://mw2.google.com/mw-panoramio/photos/medium/46921331.jpg","photo_id":46921331,"photo_title":"Kair - Oranges seller","photo_url":"http://www.panoramio.com/photo/46921331","upload_date":"22 January 2011","width":500},{"height":336,"latitude":30.070654000000001,"longitude":31.255459999999999,"owner_id":2783701,"owner_name":"KFE.","owner_url":"http://www.panoramio.com/user/2783701","photo_file_url":"http://mw2.google.com/mw-panoramio/photos/medium/32596938.jpg","photo_id":32596938,"photo_title":"Kairo","photo_url":"http://www.panoramio.com/photo/32596938","upload_date":"25 February 2010","width":500},{"height":375,"latitude":29.985638000000002,"longitude":31.132072999999998,"owner_id":1077251,"owner_name":"picsonthemove","owner_url":"http://www.panoramio.com/user/1077251","photo_file_url":"http://mw2.google.com/mw-panoramio/photos/medium/16491940.jpg","photo_id":16491940,"photo_title":"Cheops Pyramid from Mena House Oberoi, by night, Gizeh, \u00c4gypten","photo_url":"http://www.panoramio.com/photo/16491940","place_id":"bfac63ba37184133826423d8796b308f82435ea5","upload_date":"01 December 2008","width":500},{"height":355,"latitude":30.017976000000001,"longitude":31.236148000000014,"owner_id":2252408,"owner_name":"Jes\u00fas Municio","owner_url":"http://www.panoramio.com/user/2252408","photo_file_url":"http://mw2.google.com/mw-panoramio/photos/medium/46306399.jpg","photo_id":46306399,"photo_title":"El Cairo. Nocturna en la zona antigua dedicada a Cuky ","photo_url":"http://www.panoramio.com/photo/46306399","upload_date":"09 January 2011","width":500},{"height":378,"latitude":30.087993000000001,"longitude":31.332481999999999,"owner_id":3805063,"owner_name":"arch.khazarian","owner_url":"http://www.panoramio.com/user/3805063","photo_file_url":"http://mw2.google.com/mw-panoramio/photos/medium/31919917.jpg","photo_id":31919917,"photo_title":"Cairo sunset","photo_url":"http://www.panoramio.com/photo/31919917","upload_date":"07 February 2010","width":500},{"height":395,"latitude":30.031427000000001,"longitude":31.257004999999999,"owner_id":46581,"owner_name":"Mohamed Abbas Zaki","owner_url":"http://www.panoramio.com/user/46581","photo_file_url":"http://mw2.google.com/mw-panoramio/photos/medium/2794300.jpg","photo_id":2794300,"photo_title":"Sultan Hassan Mosque","photo_url":"http://www.panoramio.com/photo/2794300","upload_date":"17 June 2007","width":500},{"height":332,"latitude":30.029717999999999,"longitude":31.239259000000001,"owner_id":2706839,"owner_name":"majasa","owner_url":"http://www.panoramio.com/user/2706839","photo_file_url":"http://mw2.google.com/mw-panoramio/photos/medium/47328095.jpg","photo_id":47328095,"photo_title":"Kair's street - one week before mass manifestation 2011","photo_url":"http://www.panoramio.com/photo/47328095","upload_date":"30 January 2011","width":500},{"height":357,"latitude":30.050086,"longitude":31.275238000000002,"owner_id":629243,"owner_name":"Olivier Faugeras","owner_url":"http://www.panoramio.com/user/629243","photo_file_url":"http://mw2.google.com/mw-panoramio/photos/medium/42941250.jpg","photo_id":42941250,"photo_title":"Le Caire, petit matin","photo_url":"http://www.panoramio.com/photo/42941250","upload_date":"30 October 2010","width":500},{"height":343,"latitude":30.052472000000002,"longitude":31.227220999999986,"owner_id":2834463,"owner_name":"Agneta Bodin","owner_url":"http://www.panoramio.com/user/2834463","photo_file_url":"http://mw2.google.com/mw-panoramio/photos/medium/48450986.jpg","photo_id":48450986,"photo_title":" Full moon in Cairo","photo_url":"http://www.panoramio.com/photo/48450986","upload_date":"21 February 2011","width":500},{"height":332,"latitude":30.001252999999998,"longitude":31.179628000000001,"owner_id":2706839,"owner_name":"majasa","owner_url":"http://www.panoramio.com/user/2706839","photo_file_url":"http://mw2.google.com/mw-panoramio/photos/medium/46921963.jpg","photo_id":46921963,"photo_title":"Kair - road to Giza - pulling down","photo_url":"http://www.panoramio.com/photo/46921963","upload_date":"22 January 2011","width":500},{"height":332,"latitude":30.005638999999999,"longitude":31.190186000000001,"owner_id":2706839,"owner_name":"majasa","owner_url":"http://www.panoramio.com/user/2706839","photo_file_url":"http://mw2.google.com/mw-panoramio/photos/medium/46922492.jpg","photo_id":46922492,"photo_title":"Kair - road to Giza","photo_url":"http://www.panoramio.com/photo/46922492","upload_date":"22 January 2011","width":500},{"height":332,"latitude":30.032392999999999,"longitude":31.226234000000002,"owner_id":2706839,"owner_name":"majasa","owner_url":"http://www.panoramio.com/user/2706839","photo_file_url":"http://mw2.google.com/mw-panoramio/photos/medium/46920419.jpg","photo_id":46920419,"photo_title":"Kair - Nil river","photo_url":"http://www.panoramio.com/photo/46920419","upload_date":"22 January 2011","width":500},{"height":391,"latitude":30.076291999999999,"longitude":31.208902999999992,"owner_id":4169077,"owner_name":"il medico","owner_url":"http://www.panoramio.com/user/4169077","photo_file_url":"http://mw2.google.com/mw-panoramio/photos/medium/38702147.jpg","photo_id":38702147,"photo_title":" Three tousand years of silence - Great Sphinx, Gizeh, Egypt","photo_url":"http://www.panoramio.com/photo/38702147","upload_date":"01 August 2010","width":500},{"height":360,"latitude":30.064705,"longitude":31.314522000000011,"owner_id":3805063,"owner_name":"arch.khazarian","owner_url":"http://www.panoramio.com/user/3805063","photo_file_url":"http://mw2.google.com/mw-panoramio/photos/medium/31919953.jpg","photo_id":31919953,"photo_title":"Sadat Memorial Cairo","photo_url":"http://www.panoramio.com/photo/31919953","upload_date":"07 February 2010","width":500},{"height":375,"latitude":29.936192999999999,"longitude":31.130790999999999,"owner_id":5894143,"owner_name":"szivi","owner_url":"http://www.panoramio.com/user/5894143","photo_file_url":"http://mw2.google.com/mw-panoramio/photos/medium/52836715.jpg","photo_id":52836715,"photo_title":"Great Sphinx of Giza","photo_url":"http://www.panoramio.com/photo/52836715","upload_date":"17 May 2011","width":500},{"height":335,"latitude":30.047675999999999,"longitude":31.261951,"owner_id":599125,"owner_name":"zaimemre","owner_url":"http://www.panoramio.com/user/599125","photo_file_url":"http://mw2.google.com/mw-panoramio/photos/medium/42618436.jpg","photo_id":42618436,"photo_title":"Khan el Khalili","photo_url":"http://www.panoramio.com/photo/42618436","place_id":"2a98254c4e6e80ffd6f05abee595e56dcbe8d96c","upload_date":"23 October 2010","width":500},{"height":330,"latitude":29.995604,"longitude":31.164007000000002,"owner_id":2706839,"owner_name":"majasa","owner_url":"http://www.panoramio.com/user/2706839","photo_file_url":"http://mw2.google.com/mw-panoramio/photos/medium/46920853.jpg","photo_id":46920853,"photo_title":"Kair - road to Giza","photo_url":"http://www.panoramio.com/photo/46920853","upload_date":"22 January 2011","width":500},{"height":500,"latitude":30.008151999999999,"longitude":31.23095,"owner_id":629243,"owner_name":"Olivier Faugeras","owner_url":"http://www.panoramio.com/user/629243","photo_file_url":"http://mw2.google.com/mw-panoramio/photos/medium/46569497.jpg","photo_id":46569497,"photo_title":"Le Caire, cimeti\u00e8re grec","photo_url":"http://www.panoramio.com/photo/46569497","upload_date":"15 January 2011","width":334},{"height":375,"latitude":30.073439,"longitude":31.346654999999998,"owner_id":315243,"owner_name":"Dr.Azzouqa","owner_url":"http://www.panoramio.com/user/315243","photo_file_url":"http://mw2.google.com/mw-panoramio/photos/medium/16162748.jpg","photo_id":16162748,"photo_title":"stars centre lobby","photo_url":"http://www.panoramio.com/photo/16162748","place_id":"1b434c38f56d11ab40955c9d49da91da31784c85","upload_date":"21 November 2008","width":500},{"height":335,"latitude":30.072064999999998,"longitude":31.229668000000004,"owner_id":5247891,"owner_name":"AnaMariaOss","owner_url":"http://www.panoramio.com/user/5247891","photo_file_url":"http://mw2.google.com/mw-panoramio/photos/medium/44316000.jpg","photo_id":44316000,"photo_title":"Chalupas en el rio Nilo","photo_url":"http://www.panoramio.com/photo/44316000","upload_date":"28 November 2010","width":500},{"height":333,"latitude":29.972458,"longitude":31.120926000000001,"owner_id":2433337,"owner_name":"patano","owner_url":"http://www.panoramio.com/user/2433337","photo_file_url":"http://mw2.google.com/mw-panoramio/photos/medium/15738466.jpg","photo_id":15738466,"photo_title":"le piramidi ","photo_url":"http://www.panoramio.com/photo/15738466","upload_date":"07 November 2008","width":500},{"height":375,"latitude":29.963709000000001,"longitude":31.246919999999999,"owner_id":20805,"owner_name":"Ahmad Hegab","owner_url":"http://www.panoramio.com/user/20805","photo_file_url":"http://mw2.google.com/mw-panoramio/photos/medium/148099.jpg","photo_id":148099,"photo_title":"Maadi's Nights","photo_url":"http://www.panoramio.com/photo/148099","upload_date":"14 December 2006","width":500},{"height":323,"latitude":30.051323,"longitude":31.241012000000001,"owner_id":629243,"owner_name":"Olivier Faugeras","owner_url":"http://www.panoramio.com/user/629243","photo_file_url":"http://mw2.google.com/mw-panoramio/photos/medium/42865225.jpg","photo_id":42865225,"photo_title":"Cin\u00e9ma Miami","photo_url":"http://www.panoramio.com/photo/42865225","upload_date":"28 October 2010","width":500},{"height":374,"latitude":30.086183999999999,"longitude":31.297393,"owner_id":3805063,"owner_name":"arch.khazarian","owner_url":"http://www.panoramio.com/user/3805063","photo_file_url":"http://mw2.google.com/mw-panoramio/photos/medium/31920006.jpg","photo_id":31920006,"photo_title":"Kairo Sun Panorama","photo_url":"http://www.panoramio.com/photo/31920006","upload_date":"07 February 2010","width":500},{"height":375,"latitude":30.022241999999999,"longitude":31.252278999999987,"owner_id":46581,"owner_name":"Mohamed Abbas Zaki","owner_url":"http://www.panoramio.com/user/46581","photo_file_url":"http://mw2.google.com/mw-panoramio/photos/medium/2217562.jpg","photo_id":2217562,"photo_title":"Al Sayyida Nafisa Mosque from inside","photo_url":"http://www.panoramio.com/photo/2217562","upload_date":"14 May 2007","width":500},{"height":385,"latitude":29.992270000000001,"longitude":31.09665,"owner_id":180363,"owner_name":"AustrianAviationArt","owner_url":"http://www.panoramio.com/user/180363","photo_file_url":"http://mw2.google.com/mw-panoramio/photos/medium/21596894.jpg","photo_id":21596894,"photo_title":"Giza - Pyramides (Aerial view, 4/2009)","photo_url":"http://www.panoramio.com/photo/21596894","upload_date":"24 April 2009","width":500},{"height":332,"latitude":30.111573,"longitude":31.171645999999999,"owner_id":3250971,"owner_name":"sete garcia","owner_url":"http://www.panoramio.com/user/3250971","photo_file_url":"http://mw2.google.com/mw-panoramio/photos/medium/44160322.jpg","photo_id":44160322,"photo_title":"Mezquita de Mohammed Al\u00ed - Egypt","photo_url":"http://www.panoramio.com/photo/44160322","place_id":"d12e68101c6b14b46c1812fd0fac7e2bef79317d","upload_date":"25 November 2010","width":500},{"height":500,"latitude":30.061665999999999,"longitude":31.246489999999994,"owner_id":176139,"owner_name":"Christina Veneti","owner_url":"http://www.panoramio.com/user/176139","photo_file_url":"http://mw2.google.com/mw-panoramio/photos/medium/41186850.jpg","photo_id":41186850,"photo_title":"Cairo","photo_url":"http://www.panoramio.com/photo/41186850","upload_date":"23 September 2010","width":376},{"height":500,"latitude":29.975287999999999,"longitude":31.137229999999999,"owner_id":1185990,"owner_name":"Nenad Obr","owner_url":"http://www.panoramio.com/user/1185990","photo_file_url":"http://mw2.google.com/mw-panoramio/photos/medium/85514970.jpg","photo_id":85514970,"photo_title":"Great Sphinx of Giza","photo_url":"http://www.panoramio.com/photo/85514970","upload_date":"01 February 2013","width":411},{"height":344,"latitude":29.979341999999999,"longitude":31.134139000000001,"owner_id":1185990,"owner_name":"Nenad Obr","owner_url":"http://www.panoramio.com/user/1185990","photo_file_url":"http://mw2.google.com/mw-panoramio/photos/medium/84173973.jpg","photo_id":84173973,"photo_title":"Giza Necropolis,  Egypt","photo_url":"http://www.panoramio.com/photo/84173973","upload_date":"02 January 2013","width":500},{"height":206,"latitude":29.976051999999999,"longitude":31.130426,"owner_id":1185990,"owner_name":"Nenad Obr","owner_url":"http://www.panoramio.com/user/1185990","photo_file_url":"http://mw2.google.com/mw-panoramio/photos/medium/94741449.jpg","photo_id":94741449,"photo_title":"Egypt-Giza-Pyramids","photo_url":"http://www.panoramio.com/photo/94741449","upload_date":"16 August 2013","width":500},{"height":347,"latitude":29.977418,"longitude":31.13576900000001,"owner_id":1026765,"owner_name":"\u041b\u0435\u0442\u044f\u0449\u0430\u044f~","owner_url":"http://www.panoramio.com/user/1026765","photo_file_url":"http://mw2.google.com/mw-panoramio/photos/medium/47925275.jpg","photo_id":47925275,"photo_title":"Khafre's pyramid at Giza","photo_url":"http://www.panoramio.com/photo/47925275","upload_date":"11 February 2011","width":500},{"height":375,"latitude":30.050215999999999,"longitude":31.231812999999999,"owner_id":315243,"owner_name":"Dr.Azzouqa","owner_url":"http://www.panoramio.com/user/315243","photo_file_url":"http://mw2.google.com/mw-panoramio/photos/medium/82686725.jpg","photo_id":82686725,"photo_title":"Cairo tower","photo_url":"http://www.panoramio.com/photo/82686725","upload_date":"28 November 2012","width":500},{"height":309,"latitude":29.980754999999998,"longitude":31.133965999999987,"owner_id":2252408,"owner_name":"Jes\u00fas Municio","owner_url":"http://www.panoramio.com/user/2252408","photo_file_url":"http://mw2.google.com/mw-panoramio/photos/medium/45655462.jpg","photo_id":45655462,"photo_title":"Ya vienen los Reyes Magos (Dedicada a mis nietos)(Autor: Jes\u00fas Municio) ","photo_url":"http://www.panoramio.com/photo/45655462","upload_date":"27 December 2010","width":500},{"height":101,"latitude":30.049969999999998,"longitude":31.230746,"owner_id":315243,"owner_name":"Dr.Azzouqa","owner_url":"http://www.panoramio.com/user/315243","photo_file_url":"http://mw2.google.com/mw-panoramio/photos/medium/85139510.jpg","photo_id":85139510,"photo_title":"Cairo skyline @ night ( please enlarge )","photo_url":"http://www.panoramio.com/photo/85139510","upload_date":"24 January 2013","width":500},{"height":332,"latitude":29.963857999999998,"longitude":31.132163999999989,"owner_id":2834463,"owner_name":"Agneta Bodin","owner_url":"http://www.panoramio.com/user/2834463","photo_file_url":"http://mw2.google.com/mw-panoramio/photos/medium/48426090.jpg","photo_id":48426090,"photo_title":"Pyramid and Spinz of Giza","photo_url":"http://www.panoramio.com/photo/48426090","upload_date":"20 February 2011","width":500},{"height":375,"latitude":29.968914000000002,"longitude":31.129417,"owner_id":41113,"owner_name":"Geoff Lackner","owner_url":"http://www.panoramio.com/user/41113","photo_file_url":"http://mw2.google.com/mw-panoramio/photos/medium/205593.jpg","photo_id":205593,"photo_title":"IMG_2317","photo_url":"http://www.panoramio.com/photo/205593","upload_date":"21 December 2006","width":500},{"height":379,"latitude":29.977688000000001,"longitude":31.126006,"owner_id":950063,"owner_name":"Bellisario Fasano","owner_url":"http://www.panoramio.com/user/950063","photo_file_url":"http://mw2.google.com/mw-panoramio/photos/medium/12609391.jpg","photo_id":12609391,"photo_title":"Tramonto apparente sulla piramide di Chefren e Cheope*","photo_url":"http://www.panoramio.com/photo/12609391","upload_date":"29 July 2008","width":500},{"height":500,"latitude":30.00611,"longitude":31.230319999999999,"owner_id":3805063,"owner_name":"arch.khazarian","owner_url":"http://www.panoramio.com/user/3805063","photo_file_url":"http://mw2.google.com/mw-panoramio/photos/medium/52853594.jpg","photo_id":52853594,"photo_title":"Coptic Museum 1910","photo_url":"http://www.panoramio.com/photo/52853594","upload_date":"18 May 2011","width":500},{"height":332,"latitude":30.045814,"longitude":31.235213999999985,"owner_id":2706839,"owner_name":"majasa","owner_url":"http://www.panoramio.com/user/2706839","photo_file_url":"http://mw2.google.com/mw-panoramio/photos/medium/47522823.jpg","photo_id":47522823,"photo_title":"Kair - The Egyptian muzeum - Al Tahrir (one week before demonstration 2011)","photo_url":"http://www.panoramio.com/photo/47522823","upload_date":"03 February 2011","width":500},{"height":332,"latitude":29.971181000000001,"longitude":31.123163999999999,"owner_id":5487121,"owner_name":"Fernandose","owner_url":"http://www.panoramio.com/user/5487121","photo_file_url":"http://mw2.google.com/mw-panoramio/photos/medium/77492789.jpg","photo_id":77492789,"photo_title":"En caravana - Giza - Egipto - Dedicada a Benjam\u00edn N\u00fa\u00f1ez - 20 \u2606 ","photo_url":"http://www.panoramio.com/photo/77492789","upload_date":"22 August 2012","width":500},{"height":332,"latitude":29.972446000000001,"longitude":31.121092000000001,"owner_id":2706839,"owner_name":"majasa","owner_url":"http://www.panoramio.com/user/2706839","photo_file_url":"http://mw2.google.com/mw-panoramio/photos/medium/50707345.jpg","photo_id":50707345,"photo_title":"Kair-Giza - wide panorama of the pyramids","photo_url":"http://www.panoramio.com/photo/50707345","upload_date":"08 April 2011","width":500},{"height":336,"latitude":29.985229,"longitude":31.141165000000001,"owner_id":3330771,"owner_name":"GWHoffman","owner_url":"http://www.panoramio.com/user/3330771","photo_file_url":"http://mw2.google.com/mw-panoramio/photos/medium/90446228.jpg","photo_id":90446228,"photo_title":"Pymarid Neighbors","photo_url":"http://www.panoramio.com/photo/90446228","upload_date":"17 May 2013","width":500},{"height":315,"latitude":30.029114,"longitude":31.261607000000001,"owner_id":3805063,"owner_name":"arch.khazarian","owner_url":"http://www.panoramio.com/user/3805063","photo_file_url":"http://mw2.google.com/mw-panoramio/photos/medium/51944526.jpg","photo_id":51944526,"photo_title":"Cairo Citadel 1176 - 1183","photo_url":"http://www.panoramio.com/photo/51944526","upload_date":"01 May 2011","width":500},{"height":500,"latitude":29.977827000000001,"longitude":31.136627000000001,"owner_id":1077251,"owner_name":"picsonthemove","owner_url":"http://www.panoramio.com/user/1077251","photo_file_url":"http://mw2.google.com/mw-panoramio/photos/medium/16492033.jpg","photo_id":16492033,"photo_title":"Cheops Pyramid from East, Gizeh","photo_url":"http://www.panoramio.com/photo/16492033","place_id":"70fe4f00505510bc2ff68900ff207aae30b611d6","upload_date":"01 December 2008","width":414},{"height":500,"latitude":30.063451000000001,"longitude":31.25372999999999,"owner_id":3805063,"owner_name":"arch.khazarian","owner_url":"http://www.panoramio.com/user/3805063","photo_file_url":"http://mw2.google.com/mw-panoramio/photos/medium/46991733.jpg","photo_id":46991733,"photo_title":"Armenian Cross-stone in Cairo","photo_url":"http://www.panoramio.com/photo/46991733","upload_date":"23 January 2011","width":492},{"height":400,"latitude":29.974422000000001,"longitude":31.139574,"owner_id":1315602,"owner_name":"Nicola e Pina Egitto 1999","owner_url":"http://www.panoramio.com/user/1315602","photo_file_url":"http://mw2.google.com/mw-panoramio/photos/medium/7326922.jpg","photo_id":7326922,"photo_title":"Pyramid and Sphinx of Giza, Egypt","photo_url":"http://www.panoramio.com/photo/7326922","place_id":"bfac63ba37184133826423d8796b308f82435ea5","upload_date":"24 January 2008","width":500},{"height":375,"latitude":29.974965000000001,"longitude":31.127572000000001,"owner_id":11001,"owner_name":"Arturo Garc\u00eda","owner_url":"http://www.panoramio.com/user/11001","photo_file_url":"http://mw2.google.com/mw-panoramio/photos/medium/86065.jpg","photo_id":86065,"photo_title":"Pir\u00e1mide de Kefr\u00e9n","photo_url":"http://www.panoramio.com/photo/86065","upload_date":"25 November 2006","width":500},{"height":500,"latitude":30.018051,"longitude":31.236877,"owner_id":315243,"owner_name":"Dr.Azzouqa","owner_url":"http://www.panoramio.com/user/315243","photo_file_url":"http://mw2.google.com/mw-panoramio/photos/medium/85126002.jpg","photo_id":85126002,"photo_title":"Lampione orientale","photo_url":"http://www.panoramio.com/photo/85126002","upload_date":"24 January 2013","width":333},{"height":352,"latitude":29.973635999999999,"longitude":31.132379,"owner_id":361090,"owner_name":"JohnsGroovyWebsite.com","owner_url":"http://www.panoramio.com/user/361090","photo_file_url":"http://mw2.google.com/mw-panoramio/photos/medium/17406822.jpg","photo_id":17406822,"photo_title":"PYRAMID on FIRE","photo_url":"http://www.panoramio.com/photo/17406822","upload_date":"02 January 2009","width":500},{"height":326,"latitude":30.064741999999999,"longitude":31.249509,"owner_id":2853816,"owner_name":"juanluys","owner_url":"http://www.panoramio.com/user/2853816","photo_file_url":"http://mw2.google.com/mw-panoramio/photos/medium/46847196.jpg","photo_id":46847196,"photo_title":"Dedicada al Sr. Municio.","photo_url":"http://www.panoramio.com/photo/46847196","upload_date":"20 January 2011","width":500},{"height":337,"latitude":29.975369000000001,"longitude":31.140195000000006,"owner_id":1665272,"owner_name":"JC EBY \u00a9 NO VIEWS!","owner_url":"http://www.panoramio.com/user/1665272","photo_file_url":"http://mw2.google.com/mw-panoramio/photos/medium/14316844.jpg","photo_id":14316844,"photo_title":"Le Sphinx et Khephren","photo_url":"http://www.panoramio.com/photo/14316844","upload_date":"22 September 2008","width":500},{"height":335,"latitude":30.040361999999998,"longitude":31.229737,"owner_id":599125,"owner_name":"zaimemre","owner_url":"http://www.panoramio.com/user/599125","photo_file_url":"http://mw2.google.com/mw-panoramio/photos/medium/44057370.jpg","photo_id":44057370,"photo_title":"Nile at night","photo_url":"http://www.panoramio.com/photo/44057370","upload_date":"22 November 2010","width":500},{"height":332,"latitude":30.043835999999999,"longitude":31.231213,"owner_id":2706839,"owner_name":"majasa","owner_url":"http://www.panoramio.com/user/2706839","photo_file_url":"http://mw2.google.com/mw-panoramio/photos/medium/46920509.jpg","photo_id":46920509,"photo_title":"Kair - bridge across the Nil","photo_url":"http://www.panoramio.com/photo/46920509","upload_date":"22 January 2011","width":500},{"height":332,"latitude":30.017828000000002,"longitude":31.229153,"owner_id":2706839,"owner_name":"majasa","owner_url":"http://www.panoramio.com/user/2706839","photo_file_url":"http://mw2.google.com/mw-panoramio/photos/medium/46920116.jpg","photo_id":46920116,"photo_title":"Kair - near the Nil","photo_url":"http://www.panoramio.com/photo/46920116","upload_date":"22 January 2011","width":500},{"height":335,"latitude":29.977688000000001,"longitude":31.131392000000002,"owner_id":599125,"owner_name":"zaimemre","owner_url":"http://www.panoramio.com/user/599125","photo_file_url":"http://mw2.google.com/mw-panoramio/photos/medium/47146546.jpg","photo_id":47146546,"photo_title":"Pyramid of Cheops","photo_url":"http://www.panoramio.com/photo/47146546","place_id":"bfac63ba37184133826423d8796b308f82435ea5","upload_date":"26 January 2011","width":500},{"height":333,"latitude":30.044429999999998,"longitude":31.235783000000001,"owner_id":5103997,"owner_name":"memoouda\u2122","owner_url":"http://www.panoramio.com/user/5103997","photo_file_url":"http://mw2.google.com/mw-panoramio/photos/medium/48182728.jpg","photo_id":48182728,"photo_title":"EGYPT FREE","photo_url":"http://www.panoramio.com/photo/48182728","upload_date":"15 February 2011","width":500},{"height":375,"latitude":30.046371000000001,"longitude":31.224523999999999,"owner_id":2928565,"owner_name":"M\u00e1rio Eloi Castro","owner_url":"http://www.panoramio.com/user/2928565","photo_file_url":"http://mw2.google.com/mw-panoramio/photos/medium/86664934.jpg","photo_id":86664934,"photo_title":"CAIRO II","photo_url":"http://www.panoramio.com/photo/86664934","upload_date":"26 February 2013","width":500},{"height":381,"latitude":30.030034000000001,"longitude":31.260201999999992,"owner_id":2252408,"owner_name":"Jes\u00fas Municio","owner_url":"http://www.panoramio.com/user/2252408","photo_file_url":"http://mw2.google.com/mw-panoramio/photos/medium/47653388.jpg","photo_id":47653388,"photo_title":"Mezquita de Mohamed Ali El Cairo Egipto (fotografo: Jes\u00fas Municio)","photo_url":"http://www.panoramio.com/photo/47653388","upload_date":"06 February 2011","width":500},{"height":375,"latitude":30.076819,"longitude":31.210999000000001,"owner_id":2429627,"owner_name":"Majka44","owner_url":"http://www.panoramio.com/user/2429627","photo_file_url":"http://mw2.google.com/mw-panoramio/photos/medium/15710859.jpg","photo_id":15710859,"photo_title":"Pyram\u00eddy v Egypte   / Pyramids in Egypt /","photo_url":"http://www.panoramio.com/photo/15710859","upload_date":"06 November 2008","width":500},{"height":375,"latitude":30.072807999999998,"longitude":31.223573999999999,"owner_id":60180,"owner_name":"S.Laci","owner_url":"http://www.panoramio.com/user/60180","photo_file_url":"http://mw2.google.com/mw-panoramio/photos/medium/360926.jpg","photo_id":360926,"photo_title":"Cairo, Nile City Towers","photo_url":"http://www.panoramio.com/photo/360926","upload_date":"09 January 2007","width":500},{"height":333,"latitude":29.975159999999999,"longitude":31.131134000000003,"owner_id":6165473,"owner_name":"Yahia.","owner_url":"http://www.panoramio.com/user/6165473","photo_file_url":"http://mw2.google.com/mw-panoramio/photos/medium/59770994.jpg","photo_id":59770994,"photo_title":"Pyramids of Egypt","photo_url":"http://www.panoramio.com/photo/59770994","upload_date":"29 September 2011","width":500},{"height":332,"latitude":30.015598000000001,"longitude":31.240997,"owner_id":2706839,"owner_name":"majasa","owner_url":"http://www.panoramio.com/user/2706839","photo_file_url":"http://mw2.google.com/mw-panoramio/photos/medium/46920894.jpg","photo_id":46920894,"photo_title":"Kair - morning newspapers","photo_url":"http://www.panoramio.com/photo/46920894","upload_date":"22 January 2011","width":500},{"height":375,"latitude":30.030231475830078,"longitude":31.259408950805664,"owner_id":5079956,"owner_name":"Sr Lobo","owner_url":"http://www.panoramio.com/user/5079956","photo_file_url":"http://mw2.google.com/mw-panoramio/photos/medium/46591560.jpg","photo_id":46591560,"photo_title":"Mezquitas de El Cairo","photo_url":"http://www.panoramio.com/photo/46591560","upload_date":"15 January 2011","width":500},{"height":500,"latitude":30.047411,"longitude":31.248512999999999,"owner_id":1077251,"owner_name":"picsonthemove","owner_url":"http://www.panoramio.com/user/1077251","photo_file_url":"http://mw2.google.com/mw-panoramio/photos/medium/17470182.jpg","photo_id":17470182,"photo_title":"#25 The baker is coming f\u00fcr \u266b Swissmay, Cairo, Egypt","photo_url":"http://www.panoramio.com/photo/17470182","upload_date":"04 January 2009","width":460},{"height":329,"latitude":30.033953,"longitude":31.276959999999999,"owner_id":3316,"owner_name":"kristine hannon","owner_url":"http://www.panoramio.com/user/3316","photo_file_url":"http://mw2.google.com/mw-panoramio/photos/medium/2083743.jpg","photo_id":2083743,"photo_title":"Woman with oranges, Cairo","photo_url":"http://www.panoramio.com/photo/2083743","upload_date":"05 May 2007","width":500},{"height":500,"latitude":29.993077,"longitude":31.095171000000001,"owner_id":738989,"owner_name":"\u00a9\u25ba urbietorbi","owner_url":"http://www.panoramio.com/user/738989","photo_file_url":"http://mw2.google.com/mw-panoramio/photos/medium/42499811.jpg","photo_id":42499811,"photo_title":"#132 White Desert Egypt","photo_url":"http://www.panoramio.com/photo/42499811","upload_date":"20 October 2010","width":333},{"height":375,"latitude":30.054981999999999,"longitude":31.264838999999995,"owner_id":3247279,"owner_name":"wesss","owner_url":"http://www.panoramio.com/user/3247279","photo_file_url":"http://mw2.google.com/mw-panoramio/photos/medium/28302846.jpg","photo_id":28302846,"photo_title":"El nour Mosque","photo_url":"http://www.panoramio.com/photo/28302846","upload_date":"28 October 2009","width":500},{"height":119,"latitude":29.968357000000001,"longitude":31.133966000000001,"owner_id":20805,"owner_name":"Ahmad Hegab","owner_url":"http://www.panoramio.com/user/20805","photo_file_url":"http://mw2.google.com/mw-panoramio/photos/medium/16579114.jpg","photo_id":16579114,"photo_title":"the Giza Pyramids Southern panorama, Egypt","photo_url":"http://www.panoramio.com/photo/16579114","upload_date":"04 December 2008","width":500},{"height":333,"latitude":30.038634581768001,"longitude":31.224689483643001,"owner_id":119057,"owner_name":"micabdo","owner_url":"http://www.panoramio.com/user/119057","photo_file_url":"http://mw2.google.com/mw-panoramio/photos/medium/564868.jpg","photo_id":564868,"photo_title":"View from here 2","photo_url":"http://www.panoramio.com/photo/564868","upload_date":"25 January 2007","width":500},{"height":375,"latitude":29.980257000000002,"longitude":31.133119000000001,"owner_id":2928565,"owner_name":"M\u00e1rio Eloi Castro","owner_url":"http://www.panoramio.com/user/2928565","photo_file_url":"http://mw2.google.com/mw-panoramio/photos/medium/86665287.jpg","photo_id":86665287,"photo_title":"Pyramids - construction detail","photo_url":"http://www.panoramio.com/photo/86665287","upload_date":"26 February 2013","width":500},{"height":375,"latitude":29.972335000000001,"longitude":31.138344,"owner_id":1051223,"owner_name":"Graciel.la Vidal","owner_url":"http://www.panoramio.com/user/1051223","photo_file_url":"http://mw2.google.com/mw-panoramio/photos/medium/17995152.jpg","photo_id":17995152,"photo_title":"Pir\u00e0mide i esfinx","photo_url":"http://www.panoramio.com/photo/17995152","upload_date":"19 January 2009","width":500},{"height":375,"latitude":30.028775,"longitude":31.259772999999999,"owner_id":90373,"owner_name":"michael habla","owner_url":"http://www.panoramio.com/user/90373","photo_file_url":"http://mw2.google.com/mw-panoramio/photos/medium/14459863.jpg","photo_id":14459863,"photo_title":"mosque of muhammad ali - the dome","photo_url":"http://www.panoramio.com/photo/14459863","place_id":"d12e68101c6b14b46c1812fd0fac7e2bef79317d","upload_date":"27 September 2008","width":500},{"height":500,"latitude":30.027695999999999,"longitude":31.260383999999988,"owner_id":2732085,"owner_name":"Darjo","owner_url":"http://www.panoramio.com/user/2732085","photo_file_url":"http://mw2.google.com/mw-panoramio/photos/medium/30844767.jpg","photo_id":30844767,"photo_title":"Citadela, Kairo","photo_url":"http://www.panoramio.com/photo/30844767","upload_date":"09 January 2010","width":375},{"height":333,"latitude":29.968095999999999,"longitude":31.137657000000001,"owner_id":2433337,"owner_name":"patano","owner_url":"http://www.panoramio.com/user/2433337","photo_file_url":"http://mw2.google.com/mw-panoramio/photos/medium/16147118.jpg","photo_id":16147118,"photo_title":"un taxi a Giza","photo_url":"http://www.panoramio.com/photo/16147118","upload_date":"20 November 2008","width":500},{"height":328,"latitude":30.065370000000001,"longitude":31.222483000000011,"owner_id":3805063,"owner_name":"arch.khazarian","owner_url":"http://www.panoramio.com/user/3805063","photo_file_url":"http://mw2.google.com/mw-panoramio/photos/medium/40697810.jpg","photo_id":40697810,"photo_title":"Kairo Armenian- Bau 1927","photo_url":"http://www.panoramio.com/photo/40697810","upload_date":"13 September 2010","width":500},{"height":375,"latitude":29.970438999999999,"longitude":31.141005000000007,"owner_id":3937517,"owner_name":"leohoe","owner_url":"http://www.panoramio.com/user/3937517","photo_file_url":"http://mw2.google.com/mw-panoramio/photos/medium/35604870.jpg","photo_id":35604870,"photo_title":"Pyramiden und Sphinx von Gizeh","photo_url":"http://www.panoramio.com/photo/35604870","upload_date":"16 May 2010","width":500},{"height":375,"latitude":29.968115000000001,"longitude":31.125319000000001,"owner_id":10716,"owner_name":"BERNARDO ROBLEDO","owner_url":"http://www.panoramio.com/user/10716","photo_file_url":"http://mw2.google.com/mw-panoramio/photos/medium/83574.jpg","photo_id":83574,"photo_title":"espejismo","photo_url":"http://www.panoramio.com/photo/83574","upload_date":"20 November 2006","width":500},{"height":399,"latitude":29.975754999999999,"longitude":31.136284,"owner_id":46581,"owner_name":"Mohamed Abbas Zaki","owner_url":"http://www.panoramio.com/user/46581","photo_file_url":"http://mw2.google.com/mw-panoramio/photos/medium/2940540.jpg","photo_id":2940540,"photo_title":"Pyramids and Sphinx Sound and Light Show 1","photo_url":"http://www.panoramio.com/photo/2940540","upload_date":"25 June 2007","width":500},{"height":332,"latitude":29.965643,"longitude":31.131134000000003,"owner_id":2834463,"owner_name":"Agneta Bodin","owner_url":"http://www.panoramio.com/user/2834463","photo_file_url":"http://mw2.google.com/mw-panoramio/photos/medium/48426257.jpg","photo_id":48426257,"photo_title":"View of Cairo","photo_url":"http://www.panoramio.com/photo/48426257","upload_date":"20 February 2011","width":500},{"height":333,"latitude":30.016667000000002,"longitude":31.216667000000001,"owner_id":4468679,"owner_name":"Jos\u00e9_mbrito","owner_url":"http://www.panoramio.com/user/4468679","photo_file_url":"http://mw2.google.com/mw-panoramio/photos/medium/35321971.jpg","photo_id":35321971,"photo_title":"Desert of Giza (Egypt)","photo_url":"http://www.panoramio.com/photo/35321971","upload_date":"09 May 2010","width":500},{"height":335,"latitude":30.046882,"longitude":31.233627000000013,"owner_id":599125,"owner_name":"zaimemre","owner_url":"http://www.panoramio.com/user/599125","photo_file_url":"http://mw2.google.com/mw-panoramio/photos/medium/40913640.jpg","photo_id":40913640,"photo_title":"Egypt Museum","photo_url":"http://www.panoramio.com/photo/40913640","upload_date":"17 September 2010","width":500},{"height":500,"latitude":29.982327999999999,"longitude":31.128297,"owner_id":585803,"owner_name":"cristal1995","owner_url":"http://www.panoramio.com/user/585803","photo_file_url":"http://mw2.google.com/mw-panoramio/photos/medium/68271497.jpg","photo_id":68271497,"photo_title":"Giza","photo_url":"http://www.panoramio.com/photo/68271497","upload_date":"10 March 2012","width":412},{"height":158,"latitude":30.045099,"longitude":31.235536,"owner_id":3967065,"owner_name":"Alfre_MM","owner_url":"http://www.panoramio.com/user/3967065","photo_file_url":"http://mw2.google.com/mw-panoramio/photos/medium/92633209.jpg","photo_id":92633209,"photo_title":"Plaza Tharir (Liberaci\u00f3n) de El Cairo. Ambiente cotidiano en un lugar emblem\u00e1tico - Dedicada","photo_url":"http://www.panoramio.com/photo/92633209","upload_date":"03 July 2013","width":500},{"height":374,"latitude":30.065546999999999,"longitude":31.228111999999999,"owner_id":281641,"owner_name":"Giampaolo Macorig","owner_url":"http://www.panoramio.com/user/281641","photo_file_url":"http://mw2.google.com/mw-panoramio/photos/medium/1344220.jpg","photo_id":1344220,"photo_title":"Il Cairo","photo_url":"http://www.panoramio.com/photo/1344220","upload_date":"16 March 2007","width":500},{"height":283,"latitude":30.013055999999999,"longitude":31.208853000000001,"owner_id":7439384,"owner_name":"Mar\u00eda Fernando","owner_url":"http://www.panoramio.com/user/7439384","photo_file_url":"http://mw2.google.com/mw-panoramio/photos/medium/86626971.jpg","photo_id":86626971,"photo_title":"Pir\u00e1mide de Keops. La gran Pir\u00e1mide de Giza es la m\u00e1s antigua de las siete maravillas del Mundo. Egipto. ","photo_url":"http://www.panoramio.com/photo/86626971","upload_date":"26 February 2013","width":500},{"height":335,"latitude":29.961925000000001,"longitude":31.127013999999999,"owner_id":1248276,"owner_name":"\u00a9theWolfsEye\u263c","owner_url":"http://www.panoramio.com/user/1248276","photo_file_url":"http://mw2.google.com/mw-panoramio/photos/medium/17022386.jpg","photo_id":17022386,"photo_title":"Al-Ahram  \u00a91986\u263c \u0627\u0644\u0623\u0647\u0631\u0627\u0645\u0627\u062a","photo_url":"http://www.panoramio.com/photo/17022386","upload_date":"20 December 2008","width":500},{"height":141,"latitude":29.964378,"longitude":31.121693,"owner_id":1032152,"owner_name":"m.ta\u00aehan","owner_url":"http://www.panoramio.com/user/1032152","photo_file_url":"http://mw2.google.com/mw-panoramio/photos/medium/5490048.jpg","photo_id":5490048,"photo_title":"Piramit panorama-2","photo_url":"http://www.panoramio.com/photo/5490048","upload_date":"23 October 2007","width":500},{"height":328,"latitude":30.04495,"longitude":31.269750999999999,"owner_id":5312201,"owner_name":"Mabruka  No views!","owner_url":"http://www.panoramio.com/user/5312201","photo_file_url":"http://mw2.google.com/mw-panoramio/photos/medium/63215712.jpg","photo_id":63215712,"photo_title":"Elv\u00e1gy\u00f3dom... / View of Cairo","photo_url":"http://www.panoramio.com/photo/63215712","upload_date":"07 December 2011","width":500},{"height":341,"latitude":29.969214999999998,"longitude":31.127789000000007,"owner_id":180363,"owner_name":"AustrianAviationArt","owner_url":"http://www.panoramio.com/user/180363","photo_file_url":"http://mw2.google.com/mw-panoramio/photos/medium/21524521.jpg","photo_id":21524521,"photo_title":"Great Pyramid of Giza (Aerial View 4/2009)","photo_url":"http://www.panoramio.com/photo/21524521","upload_date":"22 April 2009","width":500},{"height":381,"latitude":30.068062999999999,"longitude":31.264310999999992,"owner_id":2252408,"owner_name":"Jes\u00fas Municio","owner_url":"http://www.panoramio.com/user/2252408","photo_file_url":"http://mw2.google.com/mw-panoramio/photos/medium/45655438.jpg","photo_id":45655438,"photo_title":"El viejo El Cairo entre la calima (Autor: Jes\u00fas Municio)","photo_url":"http://www.panoramio.com/photo/45655438","upload_date":"27 December 2010","width":500},{"height":375,"latitude":30.018156999999999,"longitude":31.26812,"owner_id":20805,"owner_name":"Ahmad Hegab","owner_url":"http://www.panoramio.com/user/20805","photo_file_url":"http://mw2.google.com/mw-panoramio/photos/medium/127295.jpg","photo_id":127295,"photo_title":"Jaheen Alkhalawatee Complex  (1538 AD)","photo_url":"http://www.panoramio.com/photo/127295","upload_date":"12 December 2006","width":500},{"height":500,"latitude":29.979054000000001,"longitude":31.135511000000001,"owner_id":270273,"owner_name":"Artur Ziembaczewski","owner_url":"http://www.panoramio.com/user/270273","photo_file_url":"http://mw2.google.com/mw-panoramio/photos/medium/8065148.jpg","photo_id":8065148,"photo_title":"Giza #18 P p/ P l","photo_url":"http://www.panoramio.com/photo/8065148","upload_date":"24 February 2008","width":375},{"height":467,"latitude":30.045767000000001,"longitude":31.240739999999999,"owner_id":76914,"owner_name":"Abdallah BOUHAMIDI","owner_url":"http://www.panoramio.com/user/76914","photo_file_url":"http://mw2.google.com/mw-panoramio/photos/medium/7218516.jpg","photo_id":7218516,"photo_title":"Deux jumelles au Caire","photo_url":"http://www.panoramio.com/photo/7218516","upload_date":"19 January 2008","width":500},{"height":375,"latitude":30.045503,"longitude":31.224373,"owner_id":60180,"owner_name":"S.Laci","owner_url":"http://www.panoramio.com/user/60180","photo_file_url":"http://mw2.google.com/mw-panoramio/photos/medium/366449.jpg","photo_id":366449,"photo_title":"Cairo, Tower Panorama 1","photo_url":"http://www.panoramio.com/photo/366449","upload_date":"10 January 2007","width":500}]}