{"count":5538,"has_more":true,"map_location":{"lat":53.555627999999999,"lon":9.9744368970068109,"panoramio_zoom":7},"photos":[{"height":377,"latitude":53.524732,"longitude":9.9411419999999993,"owner_id":964075,"owner_name":"\u00a9 febrok","owner_url":"http://www.panoramio.com/user/964075","photo_file_url":"http://mw2.google.com/mw-panoramio/photos/medium/38666486.jpg","photo_id":38666486,"photo_title":" Blue light night party - Hamburg Harbor - Blue Port - K\u00f6hlbrandbr\u00fccke. Cruise Days 2010. ","photo_url":"http://www.panoramio.com/photo/38666486","place_id":"309f03bb55eb1279c2983c25417cbe2786a3328b","upload_date":"01 August 2010","width":500},{"height":333,"latitude":53.557757000000002,"longitude":10.003883999999999,"owner_id":25222,"owner_name":"RicardoFilho","owner_url":"http://www.panoramio.com/user/25222","photo_file_url":"http://mw2.google.com/mw-panoramio/photos/medium/84031954.jpg","photo_id":84031954,"photo_title":"Freie und Hansestadt Hamburg","photo_url":"http://www.panoramio.com/photo/84031954","upload_date":"30 December 2012","width":500},{"height":500,"latitude":53.499549000000002,"longitude":10.022087000000001,"owner_id":2517860,"owner_name":"willytown","owner_url":"http://www.panoramio.com/user/2517860","photo_file_url":"http://mw2.google.com/mw-panoramio/photos/medium/40847814.jpg","photo_id":40847814,"photo_title":"Windm\u00fchle Johanna","photo_url":"http://www.panoramio.com/photo/40847814","place_id":"b28c1bcc96beee1a04da4b6252f0deac681fe79c","upload_date":"16 September 2010","width":346},{"height":465,"latitude":53.58399,"longitude":9.94679,"owner_id":2517860,"owner_name":"willytown","owner_url":"http://www.panoramio.com/user/2517860","photo_file_url":"http://mw2.google.com/mw-panoramio/photos/medium/57614124.jpg","photo_id":57614124,"photo_title":"Russische Kirche des heiligen Prokop / Russian church of the holy Prokop - Hamburg-Stellingen","photo_url":"http://www.panoramio.com/photo/57614124","place_id":"33e9407b8a0e658c60ea3cfd578929097e829c45","upload_date":"20 August 2011","width":500},{"height":410,"latitude":53.541513999999999,"longitude":9.9831950000000003,"owner_id":964075,"owner_name":"\u00a9 febrok","owner_url":"http://www.panoramio.com/user/964075","photo_file_url":"http://mw2.google.com/mw-panoramio/photos/medium/85559441.jpg","photo_id":85559441,"photo_title":"Blick aus der immer noch unvollendeten Elbphilharmonie. For Google Views? Never! ","photo_url":"http://www.panoramio.com/photo/85559441","place_id":"513d1e725ca03b23d34cbbcb8ebe7cdc96760b3b","upload_date":"02 February 2013","width":500},{"height":376,"latitude":53.577277000000002,"longitude":9.9029810000000005,"owner_id":964075,"owner_name":"\u00a9 febrok","owner_url":"http://www.panoramio.com/user/964075","photo_file_url":"http://mw2.google.com/mw-panoramio/photos/medium/80944588.jpg","photo_id":80944588,"photo_title":"Herbstfarben im Altonaer Volkspark","photo_url":"http://www.panoramio.com/photo/80944588","upload_date":"21 October 2012","width":500},{"height":333,"latitude":53.545777999999999,"longitude":9.9576170000000008,"owner_id":1666121,"owner_name":"Zahniulli","owner_url":"http://www.panoramio.com/user/1666121","photo_file_url":"http://mw2.google.com/mw-panoramio/photos/medium/77086438.jpg","photo_id":77086438,"photo_title":"Queen Mary 2 leaving the port of Hamburg at night - Queen Mary 2 verl\u00e4sst den Hamburger Hafen bei Nacht!","photo_url":"http://www.panoramio.com/photo/77086438","upload_date":"15 August 2012","width":500},{"height":500,"latitude":53.552939000000002,"longitude":9.8926979999999993,"owner_id":2517860,"owner_name":"willytown","owner_url":"http://www.panoramio.com/user/2517860","photo_file_url":"http://mw2.google.com/mw-panoramio/photos/medium/70789851.jpg","photo_id":70789851,"photo_title":"Christuskirche , Hamburg-Othmarschen","photo_url":"http://www.panoramio.com/photo/70789851","place_id":"db8c9be71ac52819c15eee5b85467406ca78d0a3","upload_date":"23 April 2012","width":481},{"height":244,"latitude":53.541966000000002,"longitude":9.8631720000000005,"owner_id":2517860,"owner_name":"willytown","owner_url":"http://www.panoramio.com/user/2517860","photo_file_url":"http://mw2.google.com/mw-panoramio/photos/medium/69373068.jpg","photo_id":69373068,"photo_title":"Mississippi-Feeling in Hamburg","photo_url":"http://www.panoramio.com/photo/69373068","place_id":"91ace63724f6561bf222e075b3d1fb5010872244","upload_date":"30 March 2012","width":500},{"height":329,"latitude":53.551682999999997,"longitude":10.027998,"owner_id":2517860,"owner_name":"willytown","owner_url":"http://www.panoramio.com/user/2517860","photo_file_url":"http://mw2.google.com/mw-panoramio/photos/medium/75160253.jpg","photo_id":75160253,"photo_title":"Berliner Bogen , Hamburg-Hammerbrook","photo_url":"http://www.panoramio.com/photo/75160253","place_id":"0b589d5258104a70065068428a5bbdefff8d7925","upload_date":"10 July 2012","width":500},{"height":333,"latitude":53.446165999999998,"longitude":9.8868379999999991,"owner_id":174832,"owner_name":"Finn Lyngesen flfoto.dk","owner_url":"http://www.panoramio.com/user/174832","photo_file_url":"http://mw2.google.com/mw-panoramio/photos/medium/70157224.jpg","photo_id":70157224,"photo_title":"Lake in Wildpark Schwarze Berge, April","photo_url":"http://www.panoramio.com/photo/70157224","upload_date":"12 April 2012","width":500},{"height":414,"latitude":53.456937000000003,"longitude":10.069108999999999,"owner_id":2517860,"owner_name":"willytown","owner_url":"http://www.panoramio.com/user/2517860","photo_file_url":"http://mw2.google.com/mw-panoramio/photos/medium/41168645.jpg","photo_id":41168645,"photo_title":"Bunth\u00e4user Spitze - Kleinster Leuchtturm Hamburgs / Smallest lighthouse of Hamburg","photo_url":"http://www.panoramio.com/photo/41168645","place_id":"2acac1197cbf0dc9d0a91964008921cdcb2bc78c","upload_date":"23 September 2010","width":500},{"height":462,"latitude":53.574534,"longitude":10.007574,"owner_id":2517860,"owner_name":"willytown","owner_url":"http://www.panoramio.com/user/2517860","photo_file_url":"http://mw2.google.com/mw-panoramio/photos/medium/55961943.jpg","photo_id":55961943,"photo_title":"Imam Ali Moschee , Hamburg - Uhlenhorst","photo_url":"http://www.panoramio.com/photo/55961943","place_id":"38692eaf3794937c0e63911416d903ba8ca3dd12","upload_date":"19 July 2011","width":500},{"height":299,"latitude":53.643568999999999,"longitude":10.072449000000001,"owner_id":2517860,"owner_name":"willytown","owner_url":"http://www.panoramio.com/user/2517860","photo_file_url":"http://mw2.google.com/mw-panoramio/photos/medium/72943035.jpg","photo_id":72943035,"photo_title":"Torhaus / Gate house , Hamburg-Wellingsb\u00fcttel","photo_url":"http://www.panoramio.com/photo/72943035","place_id":"6da7ac557dd2666b82849286d37b178b555a8a52","upload_date":"30 May 2012","width":500},{"height":402,"latitude":53.660400000000003,"longitude":9.7964549999999999,"owner_id":2517860,"owner_name":"willytown","owner_url":"http://www.panoramio.com/user/2517860","photo_file_url":"http://mw2.google.com/mw-panoramio/photos/medium/83862892.jpg","photo_id":83862892,"photo_title":"Drostei - Pinneberg","photo_url":"http://www.panoramio.com/photo/83862892","place_id":"a46b7c9a7b4f488538ce72f429efb055c1e4cee4","upload_date":"26 December 2012","width":500},{"height":500,"latitude":53.564936000000003,"longitude":9.9844259999999991,"owner_id":25222,"owner_name":"RicardoFilho","owner_url":"http://www.panoramio.com/user/25222","photo_file_url":"http://mw2.google.com/mw-panoramio/photos/medium/17628365.jpg","photo_id":17628365,"photo_title":"Fernsehturm Hamburg","photo_url":"http://www.panoramio.com/photo/17628365","upload_date":"08 January 2009","width":375},{"height":375,"latitude":53.545279000000001,"longitude":10.00634,"owner_id":809613,"owner_name":"\u003e| Micha |\u003c","owner_url":"http://www.panoramio.com/user/809613","photo_file_url":"http://mw2.google.com/mw-panoramio/photos/medium/61113929.jpg","photo_id":61113929,"photo_title":"Neues Spiegel Haus Hamburg, Ericusspitze, Speicherstadt, built 2011","photo_url":"http://www.panoramio.com/photo/61113929","place_id":"a1bc7e5077936b0fd40e332367899bc35ce4a7a5","upload_date":"25 October 2011","width":500},{"height":374,"latitude":53.547593999999997,"longitude":9.9349179999999997,"owner_id":809613,"owner_name":"\u003e| Micha |\u003c","owner_url":"http://www.panoramio.com/user/809613","photo_file_url":"http://mw2.google.com/mw-panoramio/photos/medium/72777225.jpg","photo_id":72777225,"photo_title":"Neues Rathaus Altona, Hamburg, built 1896-1898","photo_url":"http://www.panoramio.com/photo/72777225","place_id":"638f1ede4667b6f36c968034e2fcfcb605ce8857","upload_date":"27 May 2012","width":500},{"height":447,"latitude":53.572358000000001,"longitude":9.8552540000000004,"owner_id":2517860,"owner_name":"willytown","owner_url":"http://www.panoramio.com/user/2517860","photo_file_url":"http://mw2.google.com/mw-panoramio/photos/medium/93663800.jpg","photo_id":93663800,"photo_title":"Osdorfer M\u00fchle ","photo_url":"http://www.panoramio.com/photo/93663800","upload_date":"25 July 2013","width":500},{"height":500,"latitude":53.449652999999998,"longitude":9.9872799999999984,"owner_id":2517860,"owner_name":"willytown","owner_url":"http://www.panoramio.com/user/2517860","photo_file_url":"http://mw2.google.com/mw-panoramio/photos/medium/42330935.jpg","photo_id":42330935,"photo_title":"St. Maria - St. Joseph","photo_url":"http://www.panoramio.com/photo/42330935","upload_date":"17 October 2010","width":316},{"height":376,"latitude":53.617474000000001,"longitude":9.9507250000000003,"owner_id":964075,"owner_name":"\u00a9 febrok","owner_url":"http://www.panoramio.com/user/964075","photo_file_url":"http://mw2.google.com/mw-panoramio/photos/medium/52507102.jpg","photo_id":52507102,"photo_title":"Niendorfer Marktkirche. 1770 erbaut","photo_url":"http://www.panoramio.com/photo/52507102","place_id":"59325f6866b6a5b02382322f348c932254dcdce0","upload_date":"11 May 2011","width":500},{"height":379,"latitude":53.491689999999998,"longitude":9.9080910000000006,"owner_id":1581851,"owner_name":"Gernot Baur","owner_url":"http://www.panoramio.com/user/1581851","photo_file_url":"http://mw2.google.com/mw-panoramio/photos/medium/40499255.jpg","photo_id":40499255,"photo_title":"Morgennebel neben der Autobahn, zuk\u00fcnftige Anschlussstelle der Autobahn 26 an die A7","photo_url":"http://www.panoramio.com/photo/40499255","upload_date":"08 September 2010","width":500},{"height":375,"latitude":53.597140000000003,"longitude":9.9404109999999992,"owner_id":2517860,"owner_name":"willytown","owner_url":"http://www.panoramio.com/user/2517860","photo_file_url":"http://mw2.google.com/mw-panoramio/photos/medium/26220859.jpg","photo_id":26220859,"photo_title":"Thaipavillon in Hagenbecks Tierpark","photo_url":"http://www.panoramio.com/photo/26220859","place_id":"7d858d3fbc37fb91a214d602db8d906c3c2fca68","upload_date":"29 August 2009","width":500},{"height":376,"latitude":53.486860999999998,"longitude":10.016135999999999,"owner_id":2517860,"owner_name":"willytown","owner_url":"http://www.panoramio.com/user/2517860","photo_file_url":"http://mw2.google.com/mw-panoramio/photos/medium/41124658.jpg","photo_id":41124658,"photo_title":"K\u00fcstnerhaus und Kreuzkirche","photo_url":"http://www.panoramio.com/photo/41124658","place_id":"04db85c99949134b7be83033de0a8f53799d8668","upload_date":"22 September 2010","width":500},{"height":500,"latitude":53.657584999999997,"longitude":10.087605999999999,"owner_id":2517860,"owner_name":"willytown","owner_url":"http://www.panoramio.com/user/2517860","photo_file_url":"http://mw2.google.com/mw-panoramio/photos/medium/104329786.jpg","photo_id":104329786,"photo_title":"Burg Henneberg 1:4, Hamburg-Poppenb\u00fcttel","photo_url":"http://www.panoramio.com/photo/104329786","upload_date":"14 March 2014","width":460},{"height":380,"latitude":53.632336000000002,"longitude":10.007,"owner_id":2517860,"owner_name":"willytown","owner_url":"http://www.panoramio.com/user/2517860","photo_file_url":"http://mw2.google.com/mw-panoramio/photos/medium/28042630.jpg","photo_id":28042630,"photo_title":"Endstation Flughafen / Terminus airport","photo_url":"http://www.panoramio.com/photo/28042630","place_id":"2df3caec6e03b61b54faa6affff9c587664bd7a3","upload_date":"20 October 2009","width":500},{"height":375,"latitude":53.667957000000001,"longitude":10.058028,"owner_id":7775617,"owner_name":"IRR-SWEDEN","owner_url":"http://www.panoramio.com/user/7775617","photo_file_url":"http://mw2.google.com/mw-panoramio/photos/medium/97236458.jpg","photo_id":97236458,"photo_title":"Hamburg, a wonderful evening - IRR","photo_url":"http://www.panoramio.com/photo/97236458","upload_date":"04 October 2013","width":500},{"height":500,"latitude":53.561588999999998,"longitude":9.8123039999999992,"owner_id":809613,"owner_name":"\u003e| Micha |\u003c","owner_url":"http://www.panoramio.com/user/809613","photo_file_url":"http://mw2.google.com/mw-panoramio/photos/medium/36321966.jpg","photo_id":36321966,"photo_title":"Kirche Blankenese, Hamburg, built 1896","photo_url":"http://www.panoramio.com/photo/36321966","place_id":"600af7af656b20ef6c0413ddcad91d2fce5b88da","upload_date":"03 June 2010","width":376},{"height":372,"latitude":53.565054000000003,"longitude":10.056524,"owner_id":2517860,"owner_name":"willytown","owner_url":"http://www.panoramio.com/user/2517860","photo_file_url":"http://mw2.google.com/mw-panoramio/photos/medium/33368067.jpg","photo_id":33368067,"photo_title":"Ehemaliger Bahnhof Hamburg-Hasselbrook , heute Restaurant / Former railway station Hamburg-Hasselbrook , now restaurant","photo_url":"http://www.panoramio.com/photo/33368067","place_id":"44666b297a728d768a8159781de9a2da39a06762","upload_date":"18 March 2010","width":500},{"height":369,"latitude":53.649624000000003,"longitude":10.168393999999999,"owner_id":2517860,"owner_name":"willytown","owner_url":"http://www.panoramio.com/user/2517860","photo_file_url":"http://mw2.google.com/mw-panoramio/photos/medium/104730524.jpg","photo_id":104730524,"photo_title":"Museumsdorf, Hamburg-Volksdorf","photo_url":"http://www.panoramio.com/photo/104730524","place_id":"fe28bdefe211d61cf063a3003cafd803e4d8bbd3","upload_date":"23 March 2014","width":500},{"height":396,"latitude":53.547212000000002,"longitude":10.006689,"owner_id":2517860,"owner_name":"willytown","owner_url":"http://www.panoramio.com/user/2517860","photo_file_url":"http://mw2.google.com/mw-panoramio/photos/medium/71137389.jpg","photo_id":71137389,"photo_title":"Horizon Field Hamburg , Antony Gormley - Lange Nacht der Museen 2012 / Long Night of Museums 2012","photo_url":"http://www.panoramio.com/photo/71137389","place_id":"bd23288343a9cf783cd7ba1ca4de39a771524e36","upload_date":"29 April 2012","width":500},{"height":500,"latitude":53.576051999999997,"longitude":9.9440510000000017,"owner_id":964075,"owner_name":"\u00a9 febrok","owner_url":"http://www.panoramio.com/user/964075","photo_file_url":"http://mw2.google.com/mw-panoramio/photos/medium/30940990.jpg","photo_id":30940990,"photo_title":"Weihnachtslichter in Hamburg Christmas Lights.","photo_url":"http://www.panoramio.com/photo/30940990","upload_date":"11 January 2010","width":369},{"height":403,"latitude":53.553631000000003,"longitude":10.006131,"owner_id":964075,"owner_name":"\u00a9 febrok","owner_url":"http://www.panoramio.com/user/964075","photo_file_url":"http://mw2.google.com/mw-panoramio/photos/medium/83457430.jpg","photo_id":83457430,"photo_title":"Hamburger Hauptbahnhof. Wandelhalle mit Weihnachtsdekoration","photo_url":"http://www.panoramio.com/photo/83457430","place_id":"1503cc9c7633236d7b673874a72bac2c2439e247","upload_date":"16 December 2012","width":500},{"height":446,"latitude":53.578726000000003,"longitude":9.9446619999999939,"owner_id":964075,"owner_name":"\u00a9 febrok","owner_url":"http://www.panoramio.com/user/964075","photo_file_url":"http://mw2.google.com/mw-panoramio/photos/medium/31706868.jpg","photo_id":31706868,"photo_title":"Hamburg im Schnee","photo_url":"http://www.panoramio.com/photo/31706868","upload_date":"01 February 2010","width":500},{"height":370,"latitude":53.568187999999999,"longitude":9.9904240000000009,"owner_id":964075,"owner_name":"\u00a9 febrok","owner_url":"http://www.panoramio.com/user/964075","photo_file_url":"http://mw2.google.com/mw-panoramio/photos/medium/45861118.jpg","photo_id":45861118,"photo_title":"Shanghai in Hamburg ","photo_url":"http://www.panoramio.com/photo/45861118","place_id":"2973c73598dbf43467ae700a02e2a60e3e0b3848","upload_date":"01 January 2011","width":500},{"height":376,"latitude":53.580070999999997,"longitude":9.9055639999999983,"owner_id":964075,"owner_name":"\u00a9 febrok","owner_url":"http://www.panoramio.com/user/964075","photo_file_url":"http://mw2.google.com/mw-panoramio/photos/medium/66454099.jpg","photo_id":66454099,"photo_title":"Bauernhaus im Volkspark. 1916 hier wiedererbaut","photo_url":"http://www.panoramio.com/photo/66454099","place_id":"151a82c3148ac22cdf8f03f6255df541a49f32a3","upload_date":"09 February 2012","width":500},{"height":500,"latitude":53.465361999999999,"longitude":9.9854349999999954,"owner_id":2517860,"owner_name":"willytown","owner_url":"http://www.panoramio.com/user/2517860","photo_file_url":"http://mw2.google.com/mw-panoramio/photos/medium/41865323.jpg","photo_id":41865323,"photo_title":"Gefangene Sonne - Ehemaliges Getreidesilo  / Caught sun - Former grain silo ","photo_url":"http://www.panoramio.com/photo/41865323","upload_date":"08 October 2010","width":375},{"height":332,"latitude":53.549382000000001,"longitude":9.9843889999999931,"owner_id":1265647,"owner_name":"Dieter Hockertz for Panoramio","owner_url":"http://www.panoramio.com/user/1265647","photo_file_url":"http://mw2.google.com/mw-panoramio/photos/medium/60273729.jpg","photo_id":60273729,"photo_title":"Hamburg, von der Michaelisbr\u00fccke Blick auf die Ellerntorsbr\u00fccke","photo_url":"http://www.panoramio.com/photo/60273729","upload_date":"08 October 2011","width":500},{"height":367,"latitude":53.543325000000003,"longitude":9.9167190000000005,"owner_id":809613,"owner_name":"\u003e| Micha |\u003c","owner_url":"http://www.panoramio.com/user/809613","photo_file_url":"http://mw2.google.com/mw-panoramio/photos/medium/60291779.jpg","photo_id":60291779,"photo_title":"\"giants before darkness\"","photo_url":"http://www.panoramio.com/photo/60291779","place_id":"c937789fb8eaced62cf131e744f0ffa441fcf639","upload_date":"09 October 2011","width":500},{"height":375,"latitude":53.546112000000001,"longitude":10.001963,"owner_id":809613,"owner_name":"\u003e| Micha |\u003c","owner_url":"http://www.panoramio.com/user/809613","photo_file_url":"http://mw2.google.com/mw-panoramio/photos/medium/37514172.jpg","photo_id":37514172,"photo_title":"\"light meets shadow\" Speicherstadt Hamburg","photo_url":"http://www.panoramio.com/photo/37514172","place_id":"ba1f855bbd2f66bd93ac4909729352e0808bf312","upload_date":"04 July 2010","width":500},{"height":500,"latitude":53.544556999999998,"longitude":9.9973709999999869,"owner_id":809613,"owner_name":"\u003e| Micha |\u003c","owner_url":"http://www.panoramio.com/user/809613","photo_file_url":"http://mw2.google.com/mw-panoramio/photos/medium/44385840.jpg","photo_id":44385840,"photo_title":"Speicherstadt Hamburg, Am Sandtorkai mit Neuerwegsbr\u00fccke","photo_url":"http://www.panoramio.com/photo/44385840","place_id":"091fba40e63d15ef8916958ffb51b61230d4ea8a","upload_date":"29 November 2010","width":372},{"height":333,"latitude":53.543951,"longitude":9.9364740000000005,"owner_id":1839322,"owner_name":"Reiner Vogeley","owner_url":"http://www.panoramio.com/user/1839322","photo_file_url":"http://mw2.google.com/mw-panoramio/photos/medium/45775202.jpg","photo_id":45775202,"photo_title":"______Der Tag geht, die Nacht kommt... _____ ______The day goes, the night comes...______ ","photo_url":"http://www.panoramio.com/photo/45775202","place_id":"2191aa6c0f393206a11a5e75e496646045bae0b5","upload_date":"30 December 2010","width":500},{"height":500,"latitude":53.596997000000002,"longitude":10.010165000000001,"owner_id":2517860,"owner_name":"willytown","owner_url":"http://www.panoramio.com/user/2517860","photo_file_url":"http://mw2.google.com/mw-panoramio/photos/medium/56319977.jpg","photo_id":56319977,"photo_title":"Planetarium Hamburg-Winterhude , ehemaliger Wasserturm / former water tower","photo_url":"http://www.panoramio.com/photo/56319977","place_id":"69b2e0cb96993ded09c5008447ba25e0446bb3be","upload_date":"26 July 2011","width":486},{"height":351,"latitude":53.546391999999997,"longitude":9.9678810000000002,"owner_id":809613,"owner_name":"\u003e| Micha |\u003c","owner_url":"http://www.panoramio.com/user/809613","photo_file_url":"http://mw2.google.com/mw-panoramio/photos/medium/44094137.jpg","photo_id":44094137,"photo_title":"Alter Elbtunnel, St. Pauli, Hamburg, built 1911","photo_url":"http://www.panoramio.com/photo/44094137","place_id":"a070fddbd4082e4a4830addc759ffe3227ab19c9","upload_date":"23 November 2010","width":500},{"height":333,"latitude":53.552278999999999,"longitude":9.9938629999999993,"owner_id":3418712,"owner_name":"vinc107","owner_url":"http://www.panoramio.com/user/3418712","photo_file_url":"http://mw2.google.com/mw-panoramio/photos/medium/89370993.jpg","photo_id":89370993,"photo_title":"Hambourg - Rathaus by Night","photo_url":"http://www.panoramio.com/photo/89370993","upload_date":"26 April 2013","width":500},{"height":270,"latitude":53.544195999999999,"longitude":9.9529910000000008,"owner_id":1384355,"owner_name":"Stathis Chionidis","owner_url":"http://www.panoramio.com/user/1384355","photo_file_url":"http://mw2.google.com/mw-panoramio/photos/medium/108251773.jpg","photo_id":108251773,"photo_title":"Good Morning Hamburg - Germany - By Stathis Chionidis","photo_url":"http://www.panoramio.com/photo/108251773","place_id":"2d05483f982facaf30b24e810dd30e4748e9ff4d","upload_date":"16 June 2014","width":500},{"height":441,"latitude":53.496485999999997,"longitude":10.000330999999999,"owner_id":2517860,"owner_name":"willytown","owner_url":"http://www.panoramio.com/user/2517860","photo_file_url":"http://mw2.google.com/mw-panoramio/photos/medium/92837880.jpg","photo_id":92837880,"photo_title":"IBA Hamburg 2013 - Internationale Bauausstellung / International Building Exhibition","photo_url":"http://www.panoramio.com/photo/92837880","place_id":"45e755d1df2177096a15569c3eeb0dea70bec945","upload_date":"08 July 2013","width":500},{"height":333,"latitude":53.544668000000001,"longitude":9.9892540000000007,"owner_id":3418712,"owner_name":"vinc107","owner_url":"http://www.panoramio.com/user/3418712","photo_file_url":"http://mw2.google.com/mw-panoramio/photos/medium/89047154.jpg","photo_id":89047154,"photo_title":"Brucke - Hambourg","photo_url":"http://www.panoramio.com/photo/89047154","upload_date":"19 April 2013","width":500},{"height":383,"latitude":53.547311999999998,"longitude":10.002353999999997,"owner_id":809613,"owner_name":"\u003e| Micha |\u003c","owner_url":"http://www.panoramio.com/user/809613","photo_file_url":"http://mw2.google.com/mw-panoramio/photos/medium/30385109.jpg","photo_id":30385109,"photo_title":"#60 \"the highflyer touches the breeze\" Deichtor-Center Hamburg mit Highflyer, Germany","photo_url":"http://www.panoramio.com/photo/30385109","upload_date":"29 December 2009","width":500},{"height":407,"latitude":53.543979,"longitude":9.9482309999999998,"owner_id":2517860,"owner_name":"willytown","owner_url":"http://www.panoramio.com/user/2517860","photo_file_url":"http://mw2.google.com/mw-panoramio/photos/medium/69582867.jpg","photo_id":69582867,"photo_title":"Eimerkettenbagger \"Odin\" vor Blohm \u0026 Voss / Bucket chain excavator  \"Odin\" in front of Blohm \u0026 Voss","photo_url":"http://www.panoramio.com/photo/69582867","place_id":"295261f9eb2fff15018c6bb5d77d2cc7eddc8bbb","upload_date":"03 April 2012","width":500},{"height":368,"latitude":53.542163000000002,"longitude":9.9320590000000095,"owner_id":2517860,"owner_name":"willytown","owner_url":"http://www.panoramio.com/user/2517860","photo_file_url":"http://mw2.google.com/mw-panoramio/photos/medium/60212289.jpg","photo_id":60212289,"photo_title":"Dockland , Hamburg-Altona","photo_url":"http://www.panoramio.com/photo/60212289","upload_date":"07 October 2011","width":500},{"height":500,"latitude":53.584913999999998,"longitude":10.044136,"owner_id":2517860,"owner_name":"willytown","owner_url":"http://www.panoramio.com/user/2517860","photo_file_url":"http://mw2.google.com/mw-panoramio/photos/medium/72068876.jpg","photo_id":72068876,"photo_title":"Tunnelbohrer T.R.U.D.E. , Hamburg-Barmbek","photo_url":"http://www.panoramio.com/photo/72068876","place_id":"0a25b29482450a5df601f0862c7c03bd91106be1","upload_date":"14 May 2012","width":493},{"height":370,"latitude":53.536788000000001,"longitude":9.9946400000000004,"owner_id":2517860,"owner_name":"willytown","owner_url":"http://www.panoramio.com/user/2517860","photo_file_url":"http://mw2.google.com/mw-panoramio/photos/medium/91809540.jpg","photo_id":91809540,"photo_title":"Hamburg - City","photo_url":"http://www.panoramio.com/photo/91809540","upload_date":"15 June 2013","width":500},{"height":500,"latitude":53.548436000000002,"longitude":10.003534999999999,"owner_id":809613,"owner_name":"\u003e| Micha |\u003c","owner_url":"http://www.panoramio.com/user/809613","photo_file_url":"http://mw2.google.com/mw-panoramio/photos/medium/45459283.jpg","photo_id":45459283,"photo_title":"Chilehaus Hamburg Sloman Slowman, built 1922-1924","photo_url":"http://www.panoramio.com/photo/45459283","place_id":"d512714b5332e0d4f374c028c820d2d57162019b","upload_date":"23 December 2010","width":374},{"height":205,"latitude":53.542704999999998,"longitude":9.9440649999999948,"owner_id":2517860,"owner_name":"willytown","owner_url":"http://www.panoramio.com/user/2517860","photo_file_url":"http://mw2.google.com/mw-panoramio/photos/medium/60480957.jpg","photo_id":60480957,"photo_title":"AIDA-Blue am Kreuzfahrtterminal / AIDA-Blue at the  cruise terminal , Hamburg-Altona","photo_url":"http://www.panoramio.com/photo/60480957","upload_date":"12 October 2011","width":500},{"height":353,"latitude":53.541646,"longitude":10.001374999999999,"owner_id":809613,"owner_name":"\u003e| Micha |\u003c","owner_url":"http://www.panoramio.com/user/809613","photo_file_url":"http://mw2.google.com/mw-panoramio/photos/medium/55899655.jpg","photo_id":55899655,"photo_title":"Internationales Maritimes Museum Hamburg, built 1879, St Nikolai u. St Katharinen Kirche","photo_url":"http://www.panoramio.com/photo/55899655","place_id":"813880a52abad0baaa126862488fcc4671a25801","upload_date":"18 July 2011","width":500},{"height":500,"latitude":53.594804000000003,"longitude":9.9418760000000006,"owner_id":2517860,"owner_name":"willytown","owner_url":"http://www.panoramio.com/user/2517860","photo_file_url":"http://mw2.google.com/mw-panoramio/photos/medium/57404211.jpg","photo_id":57404211,"photo_title":"Nepalesischer Pagoden-Tempel / Nepalese pagoda temple - Hamburg-Stellingen","photo_url":"http://www.panoramio.com/photo/57404211","place_id":"7d858d3fbc37fb91a214d602db8d906c3c2fca68","upload_date":"15 August 2011","width":497},{"height":355,"latitude":53.550508000000001,"longitude":9.9946210000000004,"owner_id":448715,"owner_name":"Remzi Ayd\u0131n","owner_url":"http://www.panoramio.com/user/448715","photo_file_url":"http://mw2.google.com/mw-panoramio/photos/medium/75757534.jpg","photo_id":75757534,"photo_title":"Rathausmarkt, Hamburg, Deutschland /  ALMANYA","photo_url":"http://www.panoramio.com/photo/75757534","upload_date":"21 July 2012","width":500},{"height":333,"latitude":53.567844999999998,"longitude":10.015103,"owner_id":1666121,"owner_name":"Zahniulli","owner_url":"http://www.panoramio.com/user/1666121","photo_file_url":"http://mw2.google.com/mw-panoramio/photos/medium/77086470.jpg","photo_id":77086470,"photo_title":"View from the Alsterperle at night - Blick von der Alsterperle bei Nacht  ( Hamburg )","photo_url":"http://www.panoramio.com/photo/77086470","upload_date":"15 August 2012","width":500},{"height":500,"latitude":53.547277000000001,"longitude":9.9913139999999885,"owner_id":809613,"owner_name":"\u003e| Micha |\u003c","owner_url":"http://www.panoramio.com/user/809613","photo_file_url":"http://mw2.google.com/mw-panoramio/photos/medium/33936077.jpg","photo_id":33936077,"photo_title":"Ehem. Hauptkirche St. Nikolai Hamburg, built 1845-1874, height 147 metres","photo_url":"http://www.panoramio.com/photo/33936077","upload_date":"03 April 2010","width":391},{"height":363,"latitude":53.544359,"longitude":9.9698620000000062,"owner_id":809613,"owner_name":"\u003e| Micha |\u003c","owner_url":"http://www.panoramio.com/user/809613","photo_file_url":"http://mw2.google.com/mw-panoramio/photos/medium/29421772.jpg","photo_id":29421772,"photo_title":"Iron giants before darkness","photo_url":"http://www.panoramio.com/photo/29421772","upload_date":"01 December 2009","width":500},{"height":375,"latitude":53.552292000000001,"longitude":9.9908160000000006,"owner_id":964075,"owner_name":"\u00a9 febrok","owner_url":"http://www.panoramio.com/user/964075","photo_file_url":"http://mw2.google.com/mw-panoramio/photos/medium/9424381.jpg","photo_id":9424381,"photo_title":" Hamburg Altstadt  City  Bleichen- Fleet mit Restaurant ","photo_url":"http://www.panoramio.com/photo/9424381","upload_date":"16 April 2008","width":500},{"height":500,"latitude":53.664110000000001,"longitude":9.7846320000000002,"owner_id":2517860,"owner_name":"willytown","owner_url":"http://www.panoramio.com/user/2517860","photo_file_url":"http://mw2.google.com/mw-panoramio/photos/medium/74641230.jpg","photo_id":74641230,"photo_title":"Wasserturm / Water tower - Pinneberg","photo_url":"http://www.panoramio.com/photo/74641230","upload_date":"30 June 2012","width":298},{"height":375,"latitude":53.467511000000002,"longitude":9.9849309999999996,"owner_id":2517860,"owner_name":"willytown","owner_url":"http://www.panoramio.com/user/2517860","photo_file_url":"http://mw2.google.com/mw-panoramio/photos/medium/22022523.jpg","photo_id":22022523,"photo_title":"Reflexion im Hafen , Hamburg-Harburg","photo_url":"http://www.panoramio.com/photo/22022523","upload_date":"05 May 2009","width":500},{"height":177,"latitude":53.540799,"longitude":9.9759239999999991,"owner_id":809613,"owner_name":"\u003e| Micha |\u003c","owner_url":"http://www.panoramio.com/user/809613","photo_file_url":"http://mw2.google.com/mw-panoramio/photos/medium/47008986.jpg","photo_id":47008986,"photo_title":"Hamburger Hafen XXL-Panorama, Michel, Cap San Diego, Gruner Jahr Pressehaus, \u00dcberseebr\u00fccke, Mississippi Queen, Hanseatic Trade Center, Kehrwiederspitze, Elbphilharmonie","photo_url":"http://www.panoramio.com/photo/47008986","upload_date":"23 January 2011","width":500},{"height":374,"latitude":53.555478000000001,"longitude":10.002098999999999,"owner_id":809613,"owner_name":"\u003e| Micha |\u003c","owner_url":"http://www.panoramio.com/user/809613","photo_file_url":"http://mw2.google.com/mw-panoramio/photos/medium/69050670.jpg","photo_id":69050670,"photo_title":"\"Maman\" Spinne, Kunsthalle (built 1867), Hamburg","photo_url":"http://www.panoramio.com/photo/69050670","place_id":"43354f68dfc03aaef6b4f897cfaf17cc55f15529","upload_date":"24 March 2012","width":500},{"height":366,"latitude":53.443299000000003,"longitude":9.894819,"owner_id":1581851,"owner_name":"Gernot Baur","owner_url":"http://www.panoramio.com/user/1581851","photo_file_url":"http://mw2.google.com/mw-panoramio/photos/medium/47391601.jpg","photo_id":47391601,"photo_title":"Wintereinsamkeit","photo_url":"http://www.panoramio.com/photo/47391601","upload_date":"31 January 2011","width":500},{"height":475,"latitude":53.554614999999998,"longitude":10.012406999999996,"owner_id":2517860,"owner_name":"willytown","owner_url":"http://www.panoramio.com/user/2517860","photo_file_url":"http://mw2.google.com/mw-panoramio/photos/medium/57119193.jpg","photo_id":57119193,"photo_title":"Hansabrunnen / Hansa fountain , Hamburg-St.Georg","photo_url":"http://www.panoramio.com/photo/57119193","upload_date":"10 August 2011","width":500},{"height":375,"latitude":53.553994000000003,"longitude":9.986205,"owner_id":964075,"owner_name":"\u00a9 febrok","owner_url":"http://www.panoramio.com/user/964075","photo_file_url":"http://mw2.google.com/mw-panoramio/photos/medium/91193623.jpg","photo_id":91193623,"photo_title":"Das Ende von Panoramio - The end of Panoramio.  Von Google zerschlagen. To smash by Google.  Google Views? Never!!!","photo_url":"http://www.panoramio.com/photo/91193623","upload_date":"02 June 2013","width":500},{"height":328,"latitude":53.543501999999997,"longitude":9.9899920000000009,"owner_id":6131816,"owner_name":"Rainer D","owner_url":"http://www.panoramio.com/user/6131816","photo_file_url":"http://mw2.google.com/mw-panoramio/photos/medium/82161471.jpg","photo_id":82161471,"photo_title":"Old Storehouses, Speicherstadt, Hamburg, Germany","photo_url":"http://www.panoramio.com/photo/82161471","upload_date":"16 November 2012","width":500},{"height":376,"latitude":53.536746999999998,"longitude":10.034622000000001,"owner_id":964075,"owner_name":"\u00a9 febrok","owner_url":"http://www.panoramio.com/user/964075","photo_file_url":"http://mw2.google.com/mw-panoramio/photos/medium/79819593.jpg","photo_id":79819593,"photo_title":"Meine Fr\u00fchst\u00fccksbude.   My breakfast locally.","photo_url":"http://www.panoramio.com/photo/79819593","place_id":"f86fe37e5414ab236391007be643d0cc990fbbd5","upload_date":"30 September 2012","width":500},{"height":500,"latitude":53.467219,"longitude":9.9832319999999868,"owner_id":2517860,"owner_name":"willytown","owner_url":"http://www.panoramio.com/user/2517860","photo_file_url":"http://mw2.google.com/mw-panoramio/photos/medium/42688535.jpg","photo_id":42688535,"photo_title":"Historischer Kran , im Hintergrund : Harburger Schloss / Historic crane , in the background : Castle Harburg","photo_url":"http://www.panoramio.com/photo/42688535","upload_date":"24 October 2010","width":375},{"height":480,"latitude":53.551282999999998,"longitude":9.9926580000000005,"owner_id":2034101,"owner_name":"JO Cervantes D","owner_url":"http://www.panoramio.com/user/2034101","photo_file_url":"http://mw2.google.com/mw-panoramio/photos/medium/81747625.jpg","photo_id":81747625,"photo_title":"Rathaus Hamburg","photo_url":"http://www.panoramio.com/photo/81747625","upload_date":"07 November 2012","width":500},{"height":235,"latitude":53.537016999999999,"longitude":9.8793479999999931,"owner_id":2517860,"owner_name":"willytown","owner_url":"http://www.panoramio.com/user/2517860","photo_file_url":"http://mw2.google.com/mw-panoramio/photos/medium/59959655.jpg","photo_id":59959655,"photo_title":"Ehemalige BP \u00d6l Verladestation / Former BP oil loading station , Hamburg-Finkenwerder","photo_url":"http://www.panoramio.com/photo/59959655","upload_date":"02 October 2011","width":500},{"height":396,"latitude":53.553576,"longitude":9.9922210000000007,"owner_id":964075,"owner_name":"\u00a9 febrok","owner_url":"http://www.panoramio.com/user/964075","photo_file_url":"http://mw2.google.com/mw-panoramio/photos/medium/34956435.jpg","photo_id":34956435,"photo_title":"25th Hanseatic Marathon","photo_url":"http://www.panoramio.com/photo/34956435","upload_date":"01 May 2010","width":500},{"height":309,"latitude":53.540511000000002,"longitude":9.9736550000000079,"owner_id":1265647,"owner_name":"Dieter Hockertz for Panoramio","owner_url":"http://www.panoramio.com/user/1265647","photo_file_url":"http://mw2.google.com/mw-panoramio/photos/medium/64930965.jpg","photo_id":64930965,"photo_title":"Blick auf eine ewige Baustelle - Zoom in -  Foto: Heidi Hockertz","photo_url":"http://www.panoramio.com/photo/64930965","upload_date":"15 January 2012","width":500},{"height":375,"latitude":53.567701,"longitude":10.028435999999999,"owner_id":809613,"owner_name":"\u003e| Micha |\u003c","owner_url":"http://www.panoramio.com/user/809613","photo_file_url":"http://mw2.google.com/mw-panoramio/photos/medium/23518240.jpg","photo_id":23518240,"photo_title":"St. Gertrud Kirche Hamburg","photo_url":"http://www.panoramio.com/photo/23518240","place_id":"fa9e72f57f042a50a6642c7004c6f4b9dab97d31","upload_date":"16 June 2009","width":500},{"height":370,"latitude":53.555554999999998,"longitude":9.9802490000000006,"owner_id":809613,"owner_name":"\u003e| Micha |\u003c","owner_url":"http://www.panoramio.com/user/809613","photo_file_url":"http://mw2.google.com/mw-panoramio/photos/medium/61655155.jpg","photo_id":61655155,"photo_title":"Laeiszhalle Hamburg, Musikhalle, built 1908","photo_url":"http://www.panoramio.com/photo/61655155","place_id":"9464c9fa33bd64753c3ef45c8487583525936435","upload_date":"04 November 2011","width":500},{"height":348,"latitude":53.556449999999998,"longitude":9.9774349999999998,"owner_id":809613,"owner_name":"\u003e| Micha |\u003c","owner_url":"http://www.panoramio.com/user/809613","photo_file_url":"http://mw2.google.com/mw-panoramio/photos/medium/61867104.jpg","photo_id":61867104,"photo_title":"Hanseatisches Oberlandesgericht Hamburg, built 1912","photo_url":"http://www.panoramio.com/photo/61867104","place_id":"cf33624c1ddc4900007de8faad411f22b7605c35","upload_date":"08 November 2011","width":500},{"height":375,"latitude":53.552689999999998,"longitude":9.9347359999999991,"owner_id":964075,"owner_name":"\u00a9 febrok","owner_url":"http://www.panoramio.com/user/964075","photo_file_url":"http://mw2.google.com/mw-panoramio/photos/medium/7162699.jpg","photo_id":7162699,"photo_title":"Bahnhof Hamburg - Altona. Endstation-Apotheke   Rail terminus","photo_url":"http://www.panoramio.com/photo/7162699","place_id":"32840636a9262360028c1eef27feaf971ca55d11","upload_date":"16 January 2008","width":500},{"height":206,"latitude":53.542225999999999,"longitude":9.9675770000000057,"owner_id":1265647,"owner_name":"Dieter Hockertz for Panoramio","owner_url":"http://www.panoramio.com/user/1265647","photo_file_url":"http://mw2.google.com/mw-panoramio/photos/medium/60271347.jpg","photo_id":60271347,"photo_title":"Panoramabild Hamburg - enlarge ","photo_url":"http://www.panoramio.com/photo/60271347","upload_date":"08 October 2011","width":500},{"height":395,"latitude":53.550313000000003,"longitude":9.9928490000000068,"owner_id":809613,"owner_name":"\u003e| Micha |\u003c","owner_url":"http://www.panoramio.com/user/809613","photo_file_url":"http://mw2.google.com/mw-panoramio/photos/medium/53826301.jpg","photo_id":53826301,"photo_title":"S\u00e4ulenhalle Rathaus Hamburg","photo_url":"http://www.panoramio.com/photo/53826301","place_id":"b41f88a4f9f60db8370893721184858f18775d06","upload_date":"06 June 2011","width":500},{"height":500,"latitude":53.548797,"longitude":9.9804479999999955,"owner_id":4489095,"owner_name":"Mirk0","owner_url":"http://www.panoramio.com/user/4489095","photo_file_url":"http://mw2.google.com/mw-panoramio/photos/medium/47412136.jpg","photo_id":47412136,"photo_title":"COME ON !","photo_url":"http://www.panoramio.com/photo/47412136","upload_date":"01 February 2011","width":345},{"height":375,"latitude":53.503844999999998,"longitude":10.012860999999999,"owner_id":2517860,"owner_name":"willytown","owner_url":"http://www.panoramio.com/user/2517860","photo_file_url":"http://mw2.google.com/mw-panoramio/photos/medium/20211674.jpg","photo_id":20211674,"photo_title":"Sonnenuntergang im Hamburger Hafen, Technology sunset","photo_url":"http://www.panoramio.com/photo/20211674","place_id":"f120334cb993968c1896d63a31ad80046bb68f7a","upload_date":"19 March 2009","width":500},{"height":500,"latitude":53.497472999999999,"longitude":10.008008,"owner_id":2517860,"owner_name":"willytown","owner_url":"http://www.panoramio.com/user/2517860","photo_file_url":"http://mw2.google.com/mw-panoramio/photos/medium/95145684.jpg","photo_id":95145684,"photo_title":"Les Machines de l\u2019\u00eele : Aeroflorale II , Biogasbetriebenes Luftschiff / Biogas-powered airship - IGS Hamburg 2013","photo_url":"http://www.panoramio.com/photo/95145684","place_id":"45e755d1df2177096a15569c3eeb0dea70bec945","upload_date":"24 August 2013","width":328},{"height":375,"latitude":53.559494000000001,"longitude":10.022943,"owner_id":25222,"owner_name":"RicardoFilho","owner_url":"http://www.panoramio.com/user/25222","photo_file_url":"http://mw2.google.com/mw-panoramio/photos/medium/18293459.jpg","photo_id":18293459,"photo_title":"Schweigen...","photo_url":"http://www.panoramio.com/photo/18293459","upload_date":"28 January 2009","width":500},{"height":320,"latitude":53.556601999999998,"longitude":9.9976230000000008,"owner_id":671415,"owner_name":"Frank Je\u00dfen","owner_url":"http://www.panoramio.com/user/671415","photo_file_url":"http://mw2.google.com/mw-panoramio/photos/medium/59541075.jpg","photo_id":59541075,"photo_title":"Hamburg - Das Rathaus bei Nacht / Hamburg - City hall at night","photo_url":"http://www.panoramio.com/photo/59541075","place_id":"b41f88a4f9f60db8370893721184858f18775d06","upload_date":"25 September 2011","width":500},{"height":311,"latitude":53.561430999999999,"longitude":9.9831279999999936,"owner_id":4719771,"owner_name":"ALLWO - I LIKE PANORAMIO","owner_url":"http://www.panoramio.com/user/4719771","photo_file_url":"http://mw2.google.com/mw-panoramio/photos/medium/60775479.jpg","photo_id":60775479,"photo_title":"Herbst -  Es ist der Liebe milde Zeit ( Georg Trakl )","photo_url":"http://www.panoramio.com/photo/60775479","upload_date":"18 October 2011","width":500},{"height":390,"latitude":53.549598000000003,"longitude":9.8688099999999999,"owner_id":2517860,"owner_name":"willytown","owner_url":"http://www.panoramio.com/user/2517860","photo_file_url":"http://mw2.google.com/mw-panoramio/photos/medium/103652247.jpg","photo_id":103652247,"photo_title":"Historische Borkenh\u00fctte , Naturschutzgebiet Flottbektal / Historic bark hut , Nature reserve Flottbektal - Hamburg","photo_url":"http://www.panoramio.com/photo/103652247","place_id":"eb0c7480806f936771609c929f1542b95cc3e428","upload_date":"26 February 2014","width":500},{"height":378,"latitude":53.499222000000003,"longitude":9.9975799999999992,"owner_id":2517860,"owner_name":"willytown","owner_url":"http://www.panoramio.com/user/2517860","photo_file_url":"http://mw2.google.com/mw-panoramio/photos/medium/41417097.jpg","photo_id":41417097,"photo_title":"Rathaus Hamburg - Wilhelmsburg / City hall Hamburg - Wilhelmsburg","photo_url":"http://www.panoramio.com/photo/41417097","place_id":"7944b4241a5a822b23ab2c16c0cd4e3ac00abb40","upload_date":"28 September 2010","width":500},{"height":375,"latitude":53.556066999999999,"longitude":10.007673,"owner_id":25222,"owner_name":"RicardoFilho","owner_url":"http://www.panoramio.com/user/25222","photo_file_url":"http://mw2.google.com/mw-panoramio/photos/medium/27598738.jpg","photo_id":27598738,"photo_title":"Hl. Dreieinigkeitskirche (Hamburg-St. Georg)","photo_url":"http://www.panoramio.com/photo/27598738","place_id":"1a8128de6fec7a9dd27c19241354d04b5b6a512d","upload_date":"07 October 2009","width":500},{"height":472,"latitude":53.545226,"longitude":9.9675220000000007,"owner_id":4519644,"owner_name":"C. M.","owner_url":"http://www.panoramio.com/user/4519644","photo_file_url":"http://mw2.google.com/mw-panoramio/photos/medium/80056854.jpg","photo_id":80056854,"photo_title":"Hamburger Hafen bei Nacht mit blau beleuchteten Schiffen","photo_url":"http://www.panoramio.com/photo/80056854","place_id":"2487c2d61631e1ede23359cdb2ee1c075cbc7300","upload_date":"05 October 2012","width":500},{"height":335,"latitude":53.557870000000001,"longitude":9.997852,"owner_id":964075,"owner_name":"\u00a9 febrok","owner_url":"http://www.panoramio.com/user/964075","photo_file_url":"http://mw2.google.com/mw-panoramio/photos/medium/29429701.jpg","photo_id":29429701,"photo_title":"Hamburg Au\u00dfenalster","photo_url":"http://www.panoramio.com/photo/29429701","place_id":"9444b0666ecd94dd1d2daa80bf724cd019c23285","upload_date":"01 December 2009","width":500},{"height":375,"latitude":53.607033000000001,"longitude":9.9564589999999953,"owner_id":964075,"owner_name":"\u00a9 febrok","owner_url":"http://www.panoramio.com/user/964075","photo_file_url":"http://mw2.google.com/mw-panoramio/photos/medium/30078645.jpg","photo_id":30078645,"photo_title":"Etwas mehr ist manchmal noch zu wenig. Something more is sometimes not enough.","photo_url":"http://www.panoramio.com/photo/30078645","upload_date":"19 December 2009","width":500},{"height":500,"latitude":53.546222999999998,"longitude":9.9713790000000007,"owner_id":2517860,"owner_name":"willytown","owner_url":"http://www.panoramio.com/user/2517860","photo_file_url":"http://mw2.google.com/mw-panoramio/photos/medium/100601027.jpg","photo_id":100601027,"photo_title":"Dynamik - Hamburg Blue Port , Elbphilhamonie","photo_url":"http://www.panoramio.com/photo/100601027","place_id":"513d1e725ca03b23d34cbbcb8ebe7cdc96760b3b","upload_date":"16 December 2013","width":499},{"height":500,"latitude":53.554029,"longitude":9.918787,"owner_id":964075,"owner_name":"\u00a9 febrok","owner_url":"http://www.panoramio.com/user/964075","photo_file_url":"http://mw2.google.com/mw-panoramio/photos/medium/7497524.jpg","photo_id":7497524,"photo_title":"Kreuz - Kirche Hamburg - Ottensen","photo_url":"http://www.panoramio.com/photo/7497524","place_id":"d98195d3627ef5159f88f7d26016f2c3d2426c62","upload_date":"01 February 2008","width":379},{"height":500,"latitude":53.471215000000001,"longitude":9.9938859999999998,"owner_id":809613,"owner_name":"\u003e| Micha |\u003c","owner_url":"http://www.panoramio.com/user/809613","photo_file_url":"http://mw2.google.com/mw-panoramio/photos/medium/67650922.jpg","photo_id":67650922,"photo_title":"Alte Harburger Elbbr\u00fccke, built 1897-1899","photo_url":"http://www.panoramio.com/photo/67650922","upload_date":"28 February 2012","width":382},{"height":375,"latitude":53.548670999999999,"longitude":9.9715729999999994,"owner_id":25222,"owner_name":"RicardoFilho","owner_url":"http://www.panoramio.com/user/25222","photo_file_url":"http://mw2.google.com/mw-panoramio/photos/medium/19800304.jpg","photo_id":19800304,"photo_title":"Bismarck Denkmal in Hamburg","photo_url":"http://www.panoramio.com/photo/19800304","upload_date":"08 March 2009","width":500},{"height":440,"latitude":53.619571999999998,"longitude":10.03556,"owner_id":2517860,"owner_name":"willytown","owner_url":"http://www.panoramio.com/user/2517860","photo_file_url":"http://mw2.google.com/mw-panoramio/photos/medium/34990267.jpg","photo_id":34990267,"photo_title":"Verwaltungsgeb\u00e4ude  vom Zentralfriedhof Hamburg-Ohlsdorf / Administration building of the central cemetery Hamburg-Ohlsdorf","photo_url":"http://www.panoramio.com/photo/34990267","place_id":"1a39375d5ad0d47e384ab5f8936d25517c1fd38f","upload_date":"02 May 2010","width":500},{"height":500,"latitude":53.546104999999997,"longitude":9.9218980000000006,"owner_id":2517860,"owner_name":"willytown","owner_url":"http://www.panoramio.com/user/2517860","photo_file_url":"http://mw2.google.com/mw-panoramio/photos/medium/104010197.jpg","photo_id":104010197,"photo_title":"Eventlocation Villa e96 , Hamburg - Ottensen","photo_url":"http://www.panoramio.com/photo/104010197","place_id":"e1d585b666df530a518dc125a4aa95569cb6c816","upload_date":"06 March 2014","width":473}]}