{"count":2879,"has_more":true,"map_location":{"lat":-8.6500799999999991,"lon":115.19144929222574,"panoramio_zoom":7},"photos":[{"height":376,"latitude":-8.7086439999999996,"longitude":115.16727400000002,"owner_id":2718143,"owner_name":"uni*","owner_url":"http://www.panoramio.com/user/2718143","photo_file_url":"http://mw2.google.com/mw-panoramio/photos/medium/38670224.jpg","photo_id":38670224,"photo_title":"Sunset - Bali, Indonesia ","photo_url":"http://www.panoramio.com/photo/38670224","upload_date":"01 August 2010","width":500},{"height":343,"latitude":-8.6396789999999992,"longitude":115.100078,"owner_id":5247891,"owner_name":"AnaMariaOss","owner_url":"http://www.panoramio.com/user/5247891","photo_file_url":"http://mw2.google.com/mw-panoramio/photos/medium/67831060.jpg","photo_id":67831060,"photo_title":"Monasterio de Tanah Lot","photo_url":"http://www.panoramio.com/photo/67831060","place_id":"908e748f3d7da3ca28a2b99214a3438c61157b9d","upload_date":"03 March 2012","width":500},{"height":332,"latitude":-8.6077969999999997,"longitude":115.252805,"owner_id":555362,"owner_name":"pilago","owner_url":"http://www.panoramio.com/user/555362","photo_file_url":"http://mw2.google.com/mw-panoramio/photos/medium/44590982.jpg","photo_id":44590982,"photo_title":"The Barong Dance of Bali \u00a6 by pilago","photo_url":"http://www.panoramio.com/photo/44590982","place_id":"005a5ddc75b189707b514dbcb22940c1d0f312b2","upload_date":"04 December 2010","width":500},{"height":500,"latitude":-8.6881009999999996,"longitude":115.26592099999999,"owner_id":5470004,"owner_name":"Dieter Behrens","owner_url":"http://www.panoramio.com/user/5470004","photo_file_url":"http://mw2.google.com/mw-panoramio/photos/medium/62240808.jpg","photo_id":62240808,"photo_title":"Sunrise at Sanur 6.58 Am - by DiBe","photo_url":"http://www.panoramio.com/photo/62240808","upload_date":"16 November 2011","width":332},{"height":332,"latitude":-8.7070640000000008,"longitude":115.264306,"owner_id":5470004,"owner_name":"Dieter Behrens","owner_url":"http://www.panoramio.com/user/5470004","photo_file_url":"http://mw2.google.com/mw-panoramio/photos/medium/53198119.jpg","photo_id":53198119,"photo_title":"Ebbe - Low Tide - Sanur Bali - by DiBe","photo_url":"http://www.panoramio.com/photo/53198119","place_id":"ca6333113122c6e6bc99a488e3d4e08adaee74af","upload_date":"25 May 2011","width":500},{"height":285,"latitude":-8.5230560000000004,"longitude":115.287802,"owner_id":555362,"owner_name":"pilago","owner_url":"http://www.panoramio.com/user/555362","photo_file_url":"http://mw2.google.com/mw-panoramio/photos/medium/44833859.jpg","photo_id":44833859,"photo_title":"Bali \u2014 The Goa Gajah (Elephant Cave) complex at Bedulu village \u00a6 by pilago","photo_url":"http://www.panoramio.com/photo/44833859","place_id":"fd2d25f9e2b4ec869d146fff79a7298c810c065d","upload_date":"10 December 2010","width":500},{"height":326,"latitude":-8.5484069999999992,"longitude":115.333741,"owner_id":5247891,"owner_name":"AnaMariaOss","owner_url":"http://www.panoramio.com/user/5247891","photo_file_url":"http://mw2.google.com/mw-panoramio/photos/medium/67831062.jpg","photo_id":67831062,"photo_title":"Cultivo de arroz  -- grandes terrazas","photo_url":"http://www.panoramio.com/photo/67831062","upload_date":"03 March 2012","width":500},{"height":332,"latitude":-8.5727309999999992,"longitude":115.277158,"owner_id":5247891,"owner_name":"AnaMariaOss","owner_url":"http://www.panoramio.com/user/5247891","photo_file_url":"http://mw2.google.com/mw-panoramio/photos/medium/67831065.jpg","photo_id":67831065,"photo_title":"Cultivo de arroz en otros terrenos","photo_url":"http://www.panoramio.com/photo/67831065","upload_date":"03 March 2012","width":500},{"height":332,"latitude":-8.7609870000000001,"longitude":115.169163,"owner_id":555362,"owner_name":"pilago","owner_url":"http://www.panoramio.com/user/555362","photo_file_url":"http://mw2.google.com/mw-panoramio/photos/medium/43436689.jpg","photo_id":43436689,"photo_title":"The rainy season is coming soon \u2014 Bali, Jimbaran \u00a6 by pilago","photo_url":"http://www.panoramio.com/photo/43436689","place_id":"f34b78f55bfd7a4d376943e0060f795f5f923d0c","upload_date":"09 November 2010","width":500},{"height":333,"latitude":-8.7580290000000005,"longitude":115.22224900000001,"owner_id":7395295,"owner_name":"Tiffany Liem","owner_url":"http://www.panoramio.com/user/7395295","photo_file_url":"http://mw2.google.com/mw-panoramio/photos/medium/88130659.jpg","photo_id":88130659,"photo_title":"Tanjung benoa beach at Nusa Dua by afternoon.","photo_url":"http://www.panoramio.com/photo/88130659","upload_date":"31 March 2013","width":500},{"height":302,"latitude":-8.6717150000000007,"longitude":115.232463,"owner_id":5470004,"owner_name":"Dieter Behrens","owner_url":"http://www.panoramio.com/user/5470004","photo_file_url":"http://mw2.google.com/mw-panoramio/photos/medium/55638404.jpg","photo_id":55638404,"photo_title":"Monument Perjuangan - Denpasar Bali - by DiBe","photo_url":"http://www.panoramio.com/photo/55638404","place_id":"8816955af6165791993ea66902edac87cfe93260","upload_date":"13 July 2011","width":500},{"height":326,"latitude":-8.7118850000000005,"longitude":115.21516800000001,"owner_id":5247891,"owner_name":"AnaMariaOss","owner_url":"http://www.panoramio.com/user/5247891","photo_file_url":"http://mw2.google.com/mw-panoramio/photos/medium/45488536.jpg","photo_id":45488536,"photo_title":"templos, y el verde armonioso marco - Indonesia","photo_url":"http://www.panoramio.com/photo/45488536","upload_date":"24 December 2010","width":500},{"height":375,"latitude":-8.6825189999999992,"longitude":115.15232900000001,"owner_id":4487214,"owner_name":"Lucien Kivit","owner_url":"http://www.panoramio.com/user/4487214","photo_file_url":"http://mw2.google.com/mw-panoramio/photos/medium/35645397.jpg","photo_id":35645397,"photo_title":"Pura Masceti, Seminyak Bali, Indonesia","photo_url":"http://www.panoramio.com/photo/35645397","upload_date":"17 May 2010","width":500},{"height":276,"latitude":-8.6770820000000004,"longitude":115.26512099999999,"owner_id":723890,"owner_name":"dashalive","owner_url":"http://www.panoramio.com/user/723890","photo_file_url":"http://mw2.google.com/mw-panoramio/photos/medium/22776375.jpg","photo_id":22776375,"photo_title":"Crystal Voyager ","photo_url":"http://www.panoramio.com/photo/22776375","upload_date":"27 May 2009","width":500},{"height":333,"latitude":-8.6636749999999996,"longitude":115.13517400000001,"owner_id":338286,"owner_name":"helminadia","owner_url":"http://www.panoramio.com/user/338286","photo_file_url":"http://mw2.google.com/mw-panoramio/photos/medium/18043700.jpg","photo_id":18043700,"photo_title":"Beautiful moment","photo_url":"http://www.panoramio.com/photo/18043700","upload_date":"21 January 2009","width":500},{"height":375,"latitude":-8.7254780000000007,"longitude":115.17793899999998,"owner_id":6269332,"owner_name":"Balisun","owner_url":"http://www.panoramio.com/user/6269332","photo_file_url":"http://mw2.google.com/mw-panoramio/photos/medium/58159930.jpg","photo_id":58159930,"photo_title":"Bali - Kuta Beach","photo_url":"http://www.panoramio.com/photo/58159930","upload_date":"30 August 2011","width":500},{"height":334,"latitude":-8.6934570000000004,"longitude":115.157833,"owner_id":338286,"owner_name":"helminadia","owner_url":"http://www.panoramio.com/user/338286","photo_file_url":"http://mw2.google.com/mw-panoramio/photos/medium/18091762.jpg","photo_id":18091762,"photo_title":"afternoon with you","photo_url":"http://www.panoramio.com/photo/18091762","upload_date":"22 January 2009","width":500},{"height":500,"latitude":-8.5267009999999992,"longitude":115.307693,"owner_id":3061475,"owner_name":"\u0501k\u2012cam","owner_url":"http://www.panoramio.com/user/3061475","photo_file_url":"http://mw2.google.com/mw-panoramio/photos/medium/92397135.jpg","photo_id":92397135,"photo_title":"Rice Field, Bali","photo_url":"http://www.panoramio.com/photo/92397135","upload_date":"28 June 2013","width":500},{"height":333,"latitude":-8.7281150000000007,"longitude":115.16633,"owner_id":731311,"owner_name":"john adamson","owner_url":"http://www.panoramio.com/user/731311","photo_file_url":"http://mw2.google.com/mw-panoramio/photos/medium/8345731.jpg","photo_id":8345731,"photo_title":"Kuta Beach, Bali","photo_url":"http://www.panoramio.com/photo/8345731","upload_date":"06 March 2008","width":500},{"height":332,"latitude":-8.6000320000000006,"longitude":115.26804,"owner_id":555362,"owner_name":"pilago","owner_url":"http://www.panoramio.com/user/555362","photo_file_url":"http://mw2.google.com/mw-panoramio/photos/medium/44762871.jpg","photo_id":44762871,"photo_title":"Bali, Batubulan, Balinese House \u00a6 by pilago","photo_url":"http://www.panoramio.com/photo/44762871","upload_date":"08 December 2010","width":500},{"height":375,"latitude":-8.7453780000000005,"longitude":115.16684499999997,"owner_id":4487214,"owner_name":"Lucien Kivit","owner_url":"http://www.panoramio.com/user/4487214","photo_file_url":"http://mw2.google.com/mw-panoramio/photos/medium/35645689.jpg","photo_id":35645689,"photo_title":"Ngurah Rai Airport, Denpasar, Bali Indonesia","photo_url":"http://www.panoramio.com/photo/35645689","upload_date":"17 May 2010","width":500},{"height":375,"latitude":-8.6559380000000008,"longitude":115.21679899999999,"owner_id":2474947,"owner_name":"RNLatvian","owner_url":"http://www.panoramio.com/user/2474947","photo_file_url":"http://mw2.google.com/mw-panoramio/photos/medium/20153428.jpg","photo_id":20153428,"photo_title":"Wisnu, o deus de quatro cabe\u00e7as na Pra\u00e7a Puputan","photo_url":"http://www.panoramio.com/photo/20153428","upload_date":"17 March 2009","width":500},{"height":400,"latitude":-8.7711240000000004,"longitude":115.168004,"owner_id":237573,"owner_name":"OpenBox","owner_url":"http://www.panoramio.com/user/237573","photo_file_url":"http://mw2.google.com/mw-panoramio/photos/medium/22466001.jpg","photo_id":22466001,"photo_title":"Cloudy sunset at Jimbaran beach","photo_url":"http://www.panoramio.com/photo/22466001","upload_date":"17 May 2009","width":500},{"height":500,"latitude":-8.6071602403767002,"longitude":115.1106262207,"owner_id":466539,"owner_name":"Ian Stehbens","owner_url":"http://www.panoramio.com/user/466539","photo_file_url":"http://mw2.google.com/mw-panoramio/photos/medium/2341208.jpg","photo_id":2341208,"photo_title":"Monkey escapades, Monkey Forest, Bali, Indonesia","photo_url":"http://www.panoramio.com/photo/2341208","upload_date":"22 May 2007","width":333},{"height":345,"latitude":-8.7302780000000002,"longitude":115.155709,"owner_id":347004,"owner_name":"Marcin Krakowiak","owner_url":"http://www.panoramio.com/user/347004","photo_file_url":"http://mw2.google.com/mw-panoramio/photos/medium/2041528.jpg","photo_id":2041528,"photo_title":"Kuta reef","photo_url":"http://www.panoramio.com/photo/2041528","upload_date":"03 May 2007","width":500},{"height":342,"latitude":-8.7223559999999996,"longitude":115.240681,"owner_id":332921,"owner_name":"Elios Amati (tashimelampo)","owner_url":"http://www.panoramio.com/user/332921","photo_file_url":"http://mw2.google.com/mw-panoramio/photos/medium/13188220.jpg","photo_id":13188220,"photo_title":"Serangan, 1980","photo_url":"http://www.panoramio.com/photo/13188220","upload_date":"16 August 2008","width":500},{"height":356,"latitude":-8.5419789999999995,"longitude":115.168133,"owner_id":198422,"owner_name":"dorothee","owner_url":"http://www.panoramio.com/user/198422","photo_file_url":"http://mw2.google.com/mw-panoramio/photos/medium/7046165.jpg","photo_id":7046165,"photo_title":"Ceremony near Mengwi","photo_url":"http://www.panoramio.com/photo/7046165","upload_date":"11 January 2008","width":500},{"height":346,"latitude":-8.6660509999999995,"longitude":115.255315,"owner_id":70845,"owner_name":"Chris10 \u00a9","owner_url":"http://www.panoramio.com/user/70845","photo_file_url":"http://mw2.google.com/mw-panoramio/photos/medium/719141.jpg","photo_id":719141,"photo_title":"Hindu procession on Bali (1)","photo_url":"http://www.panoramio.com/photo/719141","upload_date":"06 February 2007","width":500},{"height":375,"latitude":-8.5587280000000003,"longitude":115.27314699999999,"owner_id":90373,"owner_name":"michael habla","owner_url":"http://www.panoramio.com/user/90373","photo_file_url":"http://mw2.google.com/mw-panoramio/photos/medium/46308178.jpg","photo_id":46308178,"photo_title":"lotus pond","photo_url":"http://www.panoramio.com/photo/46308178","upload_date":"09 January 2011","width":500},{"height":330,"latitude":-8.5457140000000003,"longitude":115.147705,"owner_id":3026865,"owner_name":"\u03a7\u03a1\u0397\u03a3\u03a4\u039f\u03a3 \u03a0\u0391\u039d\u0391\u0393\u0399\u03a9\u03a4\u039f\u03a5","owner_url":"http://www.panoramio.com/user/3026865","photo_file_url":"http://mw2.google.com/mw-panoramio/photos/medium/20626940.jpg","photo_id":20626940,"photo_title":"BALI - \u039c\u03a0\u0391\u039b\u0399","photo_url":"http://www.panoramio.com/photo/20626940","upload_date":"30 March 2009","width":500},{"height":332,"latitude":-8.7771039999999996,"longitude":115.16615899999999,"owner_id":555362,"owner_name":"pilago","owner_url":"http://www.panoramio.com/user/555362","photo_file_url":"http://mw2.google.com/mw-panoramio/photos/medium/43436681.jpg","photo_id":43436681,"photo_title":"Racing the sun - T\u00e3o longe e t\u00e3o perto \u2014 Bali, Jimbaran \u00a6 by pilago","photo_url":"http://www.panoramio.com/photo/43436681","place_id":"f34b78f55bfd7a4d376943e0060f795f5f923d0c","upload_date":"09 November 2010","width":500},{"height":332,"latitude":-8.7750690000000002,"longitude":115.166845,"owner_id":555362,"owner_name":"pilago","owner_url":"http://www.panoramio.com/user/555362","photo_file_url":"http://mw2.google.com/mw-panoramio/photos/medium/43436697.jpg","photo_id":43436697,"photo_title":"The tropics are eerily quiet. But for how long? \u2014 Bali, Jimbaran \u00a6 by pilago","photo_url":"http://www.panoramio.com/photo/43436697","place_id":"f34b78f55bfd7a4d376943e0060f795f5f923d0c","upload_date":"09 November 2010","width":500},{"height":332,"latitude":-8.7751540000000006,"longitude":115.149765,"owner_id":4596533,"owner_name":"dywin","owner_url":"http://www.panoramio.com/user/4596533","photo_file_url":"http://mw2.google.com/mw-panoramio/photos/medium/53635045.jpg","photo_id":53635045,"photo_title":"the roaring sky","photo_url":"http://www.panoramio.com/photo/53635045","upload_date":"03 June 2011","width":500},{"height":342,"latitude":-8.6870879999999993,"longitude":115.265331,"owner_id":5470004,"owner_name":"Dieter Behrens","owner_url":"http://www.panoramio.com/user/5470004","photo_file_url":"http://mw2.google.com/mw-panoramio/photos/medium/52813169.jpg","photo_id":52813169,"photo_title":"Am Srand - Sanur Bali - by DiBe","photo_url":"http://www.panoramio.com/photo/52813169","upload_date":"17 May 2011","width":500},{"height":333,"latitude":-8.6918450000000007,"longitude":115.157318,"owner_id":338286,"owner_name":"helminadia","owner_url":"http://www.panoramio.com/user/338286","photo_file_url":"http://mw2.google.com/mw-panoramio/photos/medium/18043515.jpg","photo_id":18043515,"photo_title":"Walk around the Beach","photo_url":"http://www.panoramio.com/photo/18043515","upload_date":"21 January 2009","width":500},{"height":384,"latitude":-8.6821730000000006,"longitude":115.26495,"owner_id":723890,"owner_name":"dashalive","owner_url":"http://www.panoramio.com/user/723890","photo_file_url":"http://mw2.google.com/mw-panoramio/photos/medium/22698495.jpg","photo_id":22698495,"photo_title":"Z Cloud","photo_url":"http://www.panoramio.com/photo/22698495","upload_date":"24 May 2009","width":500},{"height":368,"latitude":-8.6887910000000002,"longitude":115.26598,"owner_id":723890,"owner_name":"dashalive","owner_url":"http://www.panoramio.com/user/723890","photo_file_url":"http://mw2.google.com/mw-panoramio/photos/medium/17662489.jpg","photo_id":17662489,"photo_title":"Set Sail Back To Australia","photo_url":"http://www.panoramio.com/photo/17662489","upload_date":"09 January 2009","width":500},{"height":340,"latitude":-8.6816420000000001,"longitude":115.26409100000001,"owner_id":5470004,"owner_name":"Dieter Behrens","owner_url":"http://www.panoramio.com/user/5470004","photo_file_url":"http://mw2.google.com/mw-panoramio/photos/medium/59485056.jpg","photo_id":59485056,"photo_title":"Sunrise in Sanur Beach - by DiBe","photo_url":"http://www.panoramio.com/photo/59485056","upload_date":"24 September 2011","width":500},{"height":500,"latitude":-8.693873,"longitude":115.266841,"owner_id":5470004,"owner_name":"Dieter Behrens","owner_url":"http://www.panoramio.com/user/5470004","photo_file_url":"http://mw2.google.com/mw-panoramio/photos/medium/82937529.jpg","photo_id":82937529,"photo_title":"Sunrise at Sanur - by DiBe","photo_url":"http://www.panoramio.com/photo/82937529","upload_date":"03 December 2012","width":368},{"height":332,"latitude":-8.6353340000000003,"longitude":115.18341100000001,"owner_id":4596533,"owner_name":"dywin","owner_url":"http://www.panoramio.com/user/4596533","photo_file_url":"http://mw2.google.com/mw-panoramio/photos/medium/53900102.jpg","photo_id":53900102,"photo_title":"wonderful lake","photo_url":"http://www.panoramio.com/photo/53900102","upload_date":"08 June 2011","width":500},{"height":338,"latitude":-8.7217649999999995,"longitude":115.169428,"owner_id":6854973,"owner_name":"\u67d2\u67d2","owner_url":"http://www.panoramio.com/user/6854973","photo_file_url":"http://mw2.google.com/mw-panoramio/photos/medium/72098579.jpg","photo_id":72098579,"photo_title":"Sea and groaning @ \u6d77\u8fde\u5929","photo_url":"http://www.panoramio.com/photo/72098579","upload_date":"15 May 2012","width":500},{"height":332,"latitude":-8.7735149999999997,"longitude":115.16796100000001,"owner_id":555362,"owner_name":"pilago","owner_url":"http://www.panoramio.com/user/555362","photo_file_url":"http://mw2.google.com/mw-panoramio/photos/medium/43085333.jpg","photo_id":43085333,"photo_title":"Bali, Jimbaran \u00a6 by pilago","photo_url":"http://www.panoramio.com/photo/43085333","place_id":"f34b78f55bfd7a4d376943e0060f795f5f923d0c","upload_date":"01 November 2010","width":500},{"height":332,"latitude":-8.7727620000000002,"longitude":115.168262,"owner_id":555362,"owner_name":"pilago","owner_url":"http://www.panoramio.com/user/555362","photo_file_url":"http://mw2.google.com/mw-panoramio/photos/medium/43085216.jpg","photo_id":43085216,"photo_title":"Bali, Jimbaran \u00a6 by pilago","photo_url":"http://www.panoramio.com/photo/43085216","place_id":"f34b78f55bfd7a4d376943e0060f795f5f923d0c","upload_date":"01 November 2010","width":500},{"height":500,"latitude":-8.7210049999999999,"longitude":115.169229,"owner_id":7395295,"owner_name":"Tiffany Liem","owner_url":"http://www.panoramio.com/user/7395295","photo_file_url":"http://mw2.google.com/mw-panoramio/photos/medium/99209850.jpg","photo_id":99209850,"photo_title":"s u n s e t reflection @  Kuta   beach  2013","photo_url":"http://www.panoramio.com/photo/99209850","upload_date":"13 November 2013","width":340},{"height":255,"latitude":-8.6926880000000004,"longitude":115.266862,"owner_id":5470004,"owner_name":"Dieter Behrens","owner_url":"http://www.panoramio.com/user/5470004","photo_file_url":"http://mw2.google.com/mw-panoramio/photos/medium/72421359.jpg","photo_id":72421359,"photo_title":"Fisher (Angler) at Sanur - by DiBe","photo_url":"http://www.panoramio.com/photo/72421359","upload_date":"21 May 2012","width":500},{"height":333,"latitude":-8.6908530000000006,"longitude":115.26686000000001,"owner_id":5470004,"owner_name":"Dieter Behrens","owner_url":"http://www.panoramio.com/user/5470004","photo_file_url":"http://mw2.google.com/mw-panoramio/photos/medium/49538602.jpg","photo_id":49538602,"photo_title":"Sunshine in Sanur Bali - by DiBe","photo_url":"http://www.panoramio.com/photo/49538602","upload_date":"16 March 2011","width":500},{"height":375,"latitude":-8.7159399999999998,"longitude":115.16796100000001,"owner_id":162158,"owner_name":"Mataiva","owner_url":"http://www.panoramio.com/user/162158","photo_file_url":"http://mw2.google.com/mw-panoramio/photos/medium/2401812.jpg","photo_id":2401812,"photo_title":"Bali, coucher de soleil \u00e0 Kuta","photo_url":"http://www.panoramio.com/photo/2401812","upload_date":"26 May 2007","width":500},{"height":375,"latitude":-8.7551450000000006,"longitude":115.22180900000001,"owner_id":5797248,"owner_name":"mrmvs","owner_url":"http://www.panoramio.com/user/5797248","photo_file_url":"http://mw2.google.com/mw-panoramio/photos/medium/51871196.jpg","photo_id":51871196,"photo_title":"sea \u200b\u200bturtle","photo_url":"http://www.panoramio.com/photo/51871196","upload_date":"29 April 2011","width":500},{"height":333,"latitude":-8.6900630000000003,"longitude":115.26598,"owner_id":1721864,"owner_name":"Aganto Seno","owner_url":"http://www.panoramio.com/user/1721864","photo_file_url":"http://mw2.google.com/mw-panoramio/photos/medium/11017052.jpg","photo_id":11017052,"photo_title":"Sunrise at Sanur beach with local boat","photo_url":"http://www.panoramio.com/photo/11017052","upload_date":"08 June 2008","width":500},{"height":298,"latitude":-8.6396409999999992,"longitude":115.10090599999999,"owner_id":1228941,"owner_name":"Guia NO Views thanks","owner_url":"http://www.panoramio.com/user/1228941","photo_file_url":"http://mw2.google.com/mw-panoramio/photos/medium/16831369.jpg","photo_id":16831369,"photo_title":"Playa del Templo de Tanah Lot","photo_url":"http://www.panoramio.com/photo/16831369","upload_date":"13 December 2008","width":500},{"height":374,"latitude":-8.717276,"longitude":115.17424800000001,"owner_id":1373686,"owner_name":"\u2606AXL\u2648BACH\u2606","owner_url":"http://www.panoramio.com/user/1373686","photo_file_url":"http://mw2.google.com/mw-panoramio/photos/medium/11309751.jpg","photo_id":11309751,"photo_title":"\u2606Ground Zero\u2606","photo_url":"http://www.panoramio.com/photo/11309751","upload_date":"18 June 2008","width":500},{"height":345,"latitude":-8.7539459999999991,"longitude":115.164356,"owner_id":232099,"owner_name":"@mabut","owner_url":"http://www.panoramio.com/user/232099","photo_file_url":"http://mw2.google.com/mw-panoramio/photos/medium/1235500.jpg","photo_id":1235500,"photo_title":"Jimbaran","photo_url":"http://www.panoramio.com/photo/1235500","upload_date":"09 March 2007","width":500},{"height":334,"latitude":-8.7110199999999995,"longitude":115.166073,"owner_id":338286,"owner_name":"helminadia","owner_url":"http://www.panoramio.com/user/338286","photo_file_url":"http://mw2.google.com/mw-panoramio/photos/medium/18223983.jpg","photo_id":18223983,"photo_title":"when the sky meet the sea","photo_url":"http://www.panoramio.com/photo/18223983","upload_date":"26 January 2009","width":500},{"height":334,"latitude":-8.6821730000000006,"longitude":115.149078,"owner_id":338286,"owner_name":"helminadia","owner_url":"http://www.panoramio.com/user/338286","photo_file_url":"http://mw2.google.com/mw-panoramio/photos/medium/18090501.jpg","photo_id":18090501,"photo_title":"Be with you","photo_url":"http://www.panoramio.com/photo/18090501","upload_date":"22 January 2009","width":500},{"height":375,"latitude":-8.7078799999999994,"longitude":115.166298,"owner_id":2401511,"owner_name":"nico-denis","owner_url":"http://www.panoramio.com/user/2401511","photo_file_url":"http://mw2.google.com/mw-panoramio/photos/medium/17952967.jpg","photo_id":17952967,"photo_title":"Sonnenuntergang","photo_url":"http://www.panoramio.com/photo/17952967","upload_date":"18 January 2009","width":500},{"height":333,"latitude":-8.6962150000000005,"longitude":115.160794,"owner_id":723890,"owner_name":"dashalive","owner_url":"http://www.panoramio.com/user/723890","photo_file_url":"http://mw2.google.com/mw-panoramio/photos/medium/25000306.jpg","photo_id":25000306,"photo_title":"Might As Well Jump","photo_url":"http://www.panoramio.com/photo/25000306","upload_date":"28 July 2009","width":500},{"height":500,"latitude":-8.6381549999999994,"longitude":115.09902099999999,"owner_id":3518557,"owner_name":"Lauraentodaspartes NO Views, thanks","owner_url":"http://www.panoramio.com/user/3518557","photo_file_url":"http://mw2.google.com/mw-panoramio/photos/medium/25331000.jpg","photo_id":25331000,"photo_title":"Tanah Lot sunset","photo_url":"http://www.panoramio.com/photo/25331000","place_id":"908e748f3d7da3ca28a2b99214a3438c61157b9d","upload_date":"06 August 2009","width":375},{"height":333,"latitude":-8.724933,"longitude":115.169034,"owner_id":731311,"owner_name":"john adamson","owner_url":"http://www.panoramio.com/user/731311","photo_file_url":"http://mw2.google.com/mw-panoramio/photos/medium/9988849.jpg","photo_id":9988849,"photo_title":"Kuta Sunset","photo_url":"http://www.panoramio.com/photo/9988849","upload_date":"06 May 2008","width":500},{"height":328,"latitude":-8.7571589999999997,"longitude":115.16795,"owner_id":1854648,"owner_name":"M.Reinhardt","owner_url":"http://www.panoramio.com/user/1854648","photo_file_url":"http://mw2.google.com/mw-panoramio/photos/medium/11596263.jpg","photo_id":11596263,"photo_title":"Bali","photo_url":"http://www.panoramio.com/photo/11596263","upload_date":"28 June 2008","width":500},{"height":500,"latitude":-8.7237360000000006,"longitude":115.169389,"owner_id":7395295,"owner_name":"Tiffany Liem","owner_url":"http://www.panoramio.com/user/7395295","photo_file_url":"http://mw2.google.com/mw-panoramio/photos/medium/100017012.jpg","photo_id":100017012,"photo_title":"BEAUTIFUL WORLD in BALI KUTA beach @ early evening Date taken\t 8/29/13, 3:47 PM","photo_url":"http://www.panoramio.com/photo/100017012","upload_date":"01 December 2013","width":354},{"height":371,"latitude":-8.6952470000000002,"longitude":115.16533099999998,"owner_id":6269332,"owner_name":"Balisun","owner_url":"http://www.panoramio.com/user/6269332","photo_file_url":"http://mw2.google.com/mw-panoramio/photos/medium/58159882.jpg","photo_id":58159882,"photo_title":"Bali - Seminyak Beach","photo_url":"http://www.panoramio.com/photo/58159882","upload_date":"30 August 2011","width":500},{"height":332,"latitude":-8.5432729999999992,"longitude":115.172285,"owner_id":555362,"owner_name":"pilago","owner_url":"http://www.panoramio.com/user/555362","photo_file_url":"http://mw2.google.com/mw-panoramio/photos/medium/48924908.jpg","photo_id":48924908,"photo_title":"Bali \u2014 Pura Taman Ayun \u00a6 by pilago","photo_url":"http://www.panoramio.com/photo/48924908","place_id":"8e2d780f8cb1ee87fb85979bb04eab86f470cb8b","upload_date":"03 March 2011","width":500},{"height":334,"latitude":-8.6618940000000002,"longitude":115.132835,"owner_id":338286,"owner_name":"helminadia","owner_url":"http://www.panoramio.com/user/338286","photo_file_url":"http://mw2.google.com/mw-panoramio/photos/medium/18096412.jpg","photo_id":18096412,"photo_title":"Togetherness","photo_url":"http://www.panoramio.com/photo/18096412","upload_date":"22 January 2009","width":500},{"height":374,"latitude":-8.733841,"longitude":115.16331599999999,"owner_id":332921,"owner_name":"Elios Amati (tashimelampo)","owner_url":"http://www.panoramio.com/user/332921","photo_file_url":"http://mw2.google.com/mw-panoramio/photos/medium/13216668.jpg","photo_id":13216668,"photo_title":"Kuta, anak - anak","photo_url":"http://www.panoramio.com/photo/13216668","place_id":"1c044a08d894422b4a90bf958395a58ef3f0a805","upload_date":"17 August 2008","width":500},{"height":375,"latitude":-8.693225,"longitude":115.15986599999999,"owner_id":4487214,"owner_name":"Lucien Kivit","owner_url":"http://www.panoramio.com/user/4487214","photo_file_url":"http://mw2.google.com/mw-panoramio/photos/medium/40677917.jpg","photo_id":40677917,"photo_title":"Puri Saron Seminyak Hotel, Bali, Indonesia","photo_url":"http://www.panoramio.com/photo/40677917","upload_date":"12 September 2010","width":500},{"height":329,"latitude":-8.7088560000000008,"longitude":115.165858,"owner_id":577507,"owner_name":"Alberto Gemme","owner_url":"http://www.panoramio.com/user/577507","photo_file_url":"http://mw2.google.com/mw-panoramio/photos/medium/2816486.jpg","photo_id":2816486,"photo_title":"Barca Balinese","photo_url":"http://www.panoramio.com/photo/2816486","upload_date":"18 June 2007","width":500},{"height":500,"latitude":-8.6825510000000001,"longitude":115.259497,"owner_id":3702693,"owner_name":"ikung adiwar","owner_url":"http://www.panoramio.com/user/3702693","photo_file_url":"http://mw2.google.com/mw-panoramio/photos/medium/40366891.jpg","photo_id":40366891,"photo_title":"Mc'Donalds 24 hours  - Sanur","photo_url":"http://www.panoramio.com/photo/40366891","place_id":"653fc6c5fcca73e87552f0575799fe18d0f8a2a6","upload_date":"06 September 2010","width":333},{"height":375,"latitude":-8.6354190000000006,"longitude":115.103674,"owner_id":74407,"owner_name":"Yeoman","owner_url":"http://www.panoramio.com/user/74407","photo_file_url":"http://mw2.google.com/mw-panoramio/photos/medium/445662.jpg","photo_id":445662,"photo_title":"Tanah Lot ","photo_url":"http://www.panoramio.com/photo/445662","upload_date":"15 January 2007","width":500},{"height":375,"latitude":-8.7321650000000002,"longitude":115.16913099999999,"owner_id":70845,"owner_name":"Chris10 \u00a9","owner_url":"http://www.panoramio.com/user/70845","photo_file_url":"http://mw2.google.com/mw-panoramio/photos/medium/1574498.jpg","photo_id":1574498,"photo_title":"Pondok Sari 2: Nice stay of your holidays, Kuta, Bali","photo_url":"http://www.panoramio.com/photo/1574498","upload_date":"31 March 2007","width":500},{"height":371,"latitude":-8.7336027777778007,"longitude":115.16416666667,"owner_id":20398,"owner_name":"boerx","owner_url":"http://www.panoramio.com/user/20398","photo_file_url":"http://mw2.google.com/mw-panoramio/photos/medium/415131.jpg","photo_id":415131,"photo_title":"After Sunset","photo_url":"http://www.panoramio.com/photo/415131","upload_date":"13 January 2007","width":500},{"height":329,"latitude":-8.7146679999999996,"longitude":115.16740299999998,"owner_id":1003950,"owner_name":"Tianzhan","owner_url":"http://www.panoramio.com/user/1003950","photo_file_url":"http://mw2.google.com/mw-panoramio/photos/medium/11689765.jpg","photo_id":11689765,"photo_title":"Kuta Beach, Morning\uff0c2006","photo_url":"http://www.panoramio.com/photo/11689765","upload_date":"01 July 2008","width":500},{"height":500,"latitude":-8.6922899999999998,"longitude":115.158563,"owner_id":466539,"owner_name":"Ian Stehbens","owner_url":"http://www.panoramio.com/user/466539","photo_file_url":"http://mw2.google.com/mw-panoramio/photos/medium/16704261.jpg","photo_id":16704261,"photo_title":"Anantara Apartments, Seminyak, Bali","photo_url":"http://www.panoramio.com/photo/16704261","place_id":"e69098938dc6911e50703fce09fd7715c6455ec7","upload_date":"09 December 2008","width":333},{"height":375,"latitude":-8.7242280000000001,"longitude":115.17106200000001,"owner_id":1222245,"owner_name":"Bert Lanting Fotografie","owner_url":"http://www.panoramio.com/user/1222245","photo_file_url":"http://mw2.google.com/mw-panoramio/photos/medium/6734938.jpg","photo_id":6734938,"photo_title":"Kuta Bali","photo_url":"http://www.panoramio.com/photo/6734938","upload_date":"28 December 2007","width":500},{"height":333,"latitude":-8.6854820000000004,"longitude":115.264692,"owner_id":723890,"owner_name":"dashalive","owner_url":"http://www.panoramio.com/user/723890","photo_file_url":"http://mw2.google.com/mw-panoramio/photos/medium/7210679.jpg","photo_id":7210679,"photo_title":"Sunup","photo_url":"http://www.panoramio.com/photo/7210679","upload_date":"18 January 2008","width":500},{"height":375,"latitude":-8.6862239999999993,"longitude":115.15345600000001,"owner_id":155667,"owner_name":"world of pictures by KlausH","owner_url":"http://www.panoramio.com/user/155667","photo_file_url":"http://mw2.google.com/mw-panoramio/photos/medium/5905165.jpg","photo_id":5905165,"photo_title":"Resort Seminyak from the beach","photo_url":"http://www.panoramio.com/photo/5905165","place_id":"804cb60bbbdad8ee8acb28db4705c24e0b0fd081","upload_date":"14 November 2007","width":500},{"height":375,"latitude":-8.5413899999999998,"longitude":115.17243499999999,"owner_id":155667,"owner_name":"world of pictures by KlausH","owner_url":"http://www.panoramio.com/user/155667","photo_file_url":"http://mw2.google.com/mw-panoramio/photos/medium/6844020.jpg","photo_id":6844020,"photo_title":"Pura Taman Ayun Tempel in Mengwi","photo_url":"http://www.panoramio.com/photo/6844020","place_id":"8e2d780f8cb1ee87fb85979bb04eab86f470cb8b","upload_date":"02 January 2008","width":500},{"height":332,"latitude":-8.731306,"longitude":115.16397000000001,"owner_id":70845,"owner_name":"Chris10 \u00a9","owner_url":"http://www.panoramio.com/user/70845","photo_file_url":"http://mw2.google.com/mw-panoramio/photos/medium/12960064.jpg","photo_id":12960064,"photo_title":"Good evening on Kuta beach...","photo_url":"http://www.panoramio.com/photo/12960064","upload_date":"09 August 2008","width":500},{"height":500,"latitude":-8.6844769999999993,"longitude":115.153356,"owner_id":155667,"owner_name":"world of pictures by KlausH","owner_url":"http://www.panoramio.com/user/155667","photo_file_url":"http://mw2.google.com/mw-panoramio/photos/medium/6488075.jpg","photo_id":6488075,"photo_title":"a place to sit down near a Garuda","photo_url":"http://www.panoramio.com/photo/6488075","upload_date":"15 December 2007","width":375},{"height":334,"latitude":-8.6432260000000003,"longitude":115.102816,"owner_id":338286,"owner_name":"helminadia","owner_url":"http://www.panoramio.com/user/338286","photo_file_url":"http://mw2.google.com/mw-panoramio/photos/medium/18095833.jpg","photo_id":18095833,"photo_title":"Wave","photo_url":"http://www.panoramio.com/photo/18095833","upload_date":"22 January 2009","width":500},{"height":334,"latitude":-8.7371020000000001,"longitude":115.16284899999999,"owner_id":232625,"owner_name":"Aloukian","owner_url":"http://www.panoramio.com/user/232625","photo_file_url":"http://mw2.google.com/mw-panoramio/photos/medium/2726176.jpg","photo_id":2726176,"photo_title":"Bali Hai Resort \u0026 Spa","photo_url":"http://www.panoramio.com/photo/2726176","upload_date":"13 June 2007","width":500},{"height":375,"latitude":-8.7282630000000001,"longitude":115.169506,"owner_id":3518557,"owner_name":"Lauraentodaspartes NO Views, thanks","owner_url":"http://www.panoramio.com/user/3518557","photo_file_url":"http://mw2.google.com/mw-panoramio/photos/medium/25358601.jpg","photo_id":25358601,"photo_title":"Kuta sunset","photo_url":"http://www.panoramio.com/photo/25358601","upload_date":"07 August 2009","width":500},{"height":500,"latitude":-8.6011349999999993,"longitude":115.26443499999999,"owner_id":555362,"owner_name":"pilago","owner_url":"http://www.panoramio.com/user/555362","photo_file_url":"http://mw2.google.com/mw-panoramio/photos/medium/43044394.jpg","photo_id":43044394,"photo_title":"Balinese temple \u00a6 by pilago","photo_url":"http://www.panoramio.com/photo/43044394","upload_date":"01 November 2010","width":332},{"height":338,"latitude":-8.6695609999999999,"longitude":115.247586,"owner_id":7395295,"owner_name":"Tiffany Liem","owner_url":"http://www.panoramio.com/user/7395295","photo_file_url":"http://mw2.google.com/mw-panoramio/photos/medium/88832070.jpg","photo_id":88832070,"photo_title":"houses unique and super antique ","photo_url":"http://www.panoramio.com/photo/88832070","upload_date":"15 April 2013","width":500},{"height":375,"latitude":-8.6523050000000001,"longitude":115.2174,"owner_id":7439384,"owner_name":"Mar\u00eda Fernando","owner_url":"http://www.panoramio.com/user/7439384","photo_file_url":"http://mw2.google.com/mw-panoramio/photos/medium/101846371.jpg","photo_id":101846371,"photo_title":"Mercado en Denpasar, la capital de Bali. ","photo_url":"http://www.panoramio.com/photo/101846371","upload_date":"16 January 2014","width":500},{"height":333,"latitude":-8.7460889999999996,"longitude":115.165257,"owner_id":1721864,"owner_name":"Aganto Seno","owner_url":"http://www.panoramio.com/user/1721864","photo_file_url":"http://mw2.google.com/mw-panoramio/photos/medium/41668144.jpg","photo_id":41668144,"photo_title":"Ngurah Rai International Airport ","photo_url":"http://www.panoramio.com/photo/41668144","upload_date":"04 October 2010","width":500},{"height":375,"latitude":-8.6667190000000005,"longitude":115.138564,"owner_id":245207,"owner_name":"wrolf","owner_url":"http://www.panoramio.com/user/245207","photo_file_url":"http://mw2.google.com/mw-panoramio/photos/medium/5330011.jpg","photo_id":5330011,"photo_title":"Bali beach","photo_url":"http://www.panoramio.com/photo/5330011","upload_date":"15 October 2007","width":500},{"height":341,"latitude":-8.6230720000000005,"longitude":115.08831000000001,"owner_id":355555,"owner_name":"fotoditzi","owner_url":"http://www.panoramio.com/user/355555","photo_file_url":"http://mw2.google.com/mw-panoramio/photos/medium/4201351.jpg","photo_id":4201351,"photo_title":"Indonesia - Bali - sunset near temple Pura-Tana-Lot (1)","photo_url":"http://www.panoramio.com/photo/4201351","upload_date":"26 August 2007","width":500},{"height":333,"latitude":-8.7457180000000001,"longitude":115.161841,"owner_id":3702693,"owner_name":"ikung adiwar","owner_url":"http://www.panoramio.com/user/3702693","photo_file_url":"http://mw2.google.com/mw-panoramio/photos/medium/37197024.jpg","photo_id":37197024,"photo_title":"Bandara Ngurah Rai  International Airport - Denpasar","photo_url":"http://www.panoramio.com/photo/37197024","place_id":"f15b16622dc32e973d26b2744b9141e7e0a555d9","upload_date":"26 June 2010","width":500},{"height":334,"latitude":-8.6894729999999996,"longitude":115.26241800000003,"owner_id":1229378,"owner_name":"\u00a9 Peter","owner_url":"http://www.panoramio.com/user/1229378","photo_file_url":"http://mw2.google.com/mw-panoramio/photos/medium/9467138.jpg","photo_id":9467138,"photo_title":"Hotel Bumas, Bali Indonesien","photo_url":"http://www.panoramio.com/photo/9467138","place_id":"efb68164a10c12908578da60646b694e7062b632","upload_date":"17 April 2008","width":500},{"height":325,"latitude":-8.7055640000000007,"longitude":115.1653,"owner_id":3702693,"owner_name":"ikung adiwar","owner_url":"http://www.panoramio.com/user/3702693","photo_file_url":"http://mw2.google.com/mw-panoramio/photos/medium/36617763.jpg","photo_id":36617763,"photo_title":"Legian Red Umbrela","photo_url":"http://www.panoramio.com/photo/36617763","upload_date":"11 June 2010","width":500},{"height":334,"latitude":-8.6789059999999996,"longitude":115.148392,"owner_id":338286,"owner_name":"helminadia","owner_url":"http://www.panoramio.com/user/338286","photo_file_url":"http://mw2.google.com/mw-panoramio/photos/medium/18096469.jpg","photo_id":18096469,"photo_title":"we been there","photo_url":"http://www.panoramio.com/photo/18096469","upload_date":"22 January 2009","width":500},{"height":500,"latitude":-8.7178389999999997,"longitude":115.16856199999999,"owner_id":7395295,"owner_name":"Tiffany Liem","owner_url":"http://www.panoramio.com/user/7395295","photo_file_url":"http://mw2.google.com/mw-panoramio/photos/medium/96019152.jpg","photo_id":96019152,"photo_title":"sunset @ Kuta beach ","photo_url":"http://www.panoramio.com/photo/96019152","upload_date":"09 September 2013","width":333},{"height":500,"latitude":-8.6794469999999997,"longitude":115.149985,"owner_id":7395295,"owner_name":"Tiffany Liem","owner_url":"http://www.panoramio.com/user/7395295","photo_file_url":"http://mw2.google.com/mw-panoramio/photos/medium/96093198.jpg","photo_id":96093198,"photo_title":"afternoon @ Potato Head (World's Best Bars ).","photo_url":"http://www.panoramio.com/photo/96093198","upload_date":"11 September 2013","width":334},{"height":334,"latitude":-8.6608750000000008,"longitude":115.131226,"owner_id":338286,"owner_name":"helminadia","owner_url":"http://www.panoramio.com/user/338286","photo_file_url":"http://mw2.google.com/mw-panoramio/photos/medium/18091781.jpg","photo_id":18091781,"photo_title":"The sun","photo_url":"http://www.panoramio.com/photo/18091781","upload_date":"22 January 2009","width":500},{"height":500,"latitude":-8.649858,"longitude":115.212661,"owner_id":1097696,"owner_name":"Ray Fu","owner_url":"http://www.panoramio.com/user/1097696","photo_file_url":"http://mw2.google.com/mw-panoramio/photos/medium/9184647.jpg","photo_id":9184647,"photo_title":"Candi Bentar, Bali(\u5584\u60e1\u9580, \u5cc7\u91cc\u5cf6)","photo_url":"http://www.panoramio.com/photo/9184647","upload_date":"07 April 2008","width":400},{"height":342,"latitude":-8.7240850000000005,"longitude":115.231444,"owner_id":332921,"owner_name":"Elios Amati (tashimelampo)","owner_url":"http://www.panoramio.com/user/332921","photo_file_url":"http://mw2.google.com/mw-panoramio/photos/medium/13188188.jpg","photo_id":13188188,"photo_title":"Pulao Serangan, turtle house, 1980","photo_url":"http://www.panoramio.com/photo/13188188","place_id":"9e9abaeb8a548ab0a70b254d0a207b794c5d652e","upload_date":"16 August 2008","width":500},{"height":329,"latitude":-8.6806450000000002,"longitude":115.264606,"owner_id":355555,"owner_name":"fotoditzi","owner_url":"http://www.panoramio.com/user/355555","photo_file_url":"http://mw2.google.com/mw-panoramio/photos/medium/4340550.jpg","photo_id":4340550,"photo_title":"Indonesia - Bali - Sanur / Beach","photo_url":"http://www.panoramio.com/photo/4340550","upload_date":"31 August 2007","width":500},{"height":375,"latitude":-8.7199969999999993,"longitude":115.17013900000001,"owner_id":1222245,"owner_name":"Bert Lanting Fotografie","owner_url":"http://www.panoramio.com/user/1222245","photo_file_url":"http://mw2.google.com/mw-panoramio/photos/medium/9003813.jpg","photo_id":9003813,"photo_title":"Kuta Gang Poppies 1","photo_url":"http://www.panoramio.com/photo/9003813","upload_date":"31 March 2008","width":500},{"height":331,"latitude":-8.6838700000000006,"longitude":115.264177,"owner_id":279993,"owner_name":"voyager747","owner_url":"http://www.panoramio.com/user/279993","photo_file_url":"http://mw2.google.com/mw-panoramio/photos/medium/4372182.jpg","photo_id":4372182,"photo_title":"Sanur,Bali, 2007","photo_url":"http://www.panoramio.com/photo/4372182","upload_date":"03 September 2007","width":500},{"height":375,"latitude":-8.6842939999999995,"longitude":115.151803,"owner_id":155667,"owner_name":"world of pictures by KlausH","owner_url":"http://www.panoramio.com/user/155667","photo_file_url":"http://mw2.google.com/mw-panoramio/photos/medium/5905181.jpg","photo_id":5905181,"photo_title":"sunset at the beach","photo_url":"http://www.panoramio.com/photo/5905181","upload_date":"14 November 2007","width":500}]}