{"count":2735,"has_more":true,"map_location":{"lat":-6.9154119999999999,"lon":107.59780054593523,"panoramio_zoom":7},"photos":[{"height":339,"latitude":-6.9011630000000004,"longitude":107.61879399999998,"owner_id":3702693,"owner_name":"ikung adiwar","owner_url":"http://www.panoramio.com/user/3702693","photo_file_url":"http://mw2.google.com/mw-panoramio/photos/medium/55267019.jpg","photo_id":55267019,"photo_title":"Gedung Sate - BANDUNG","photo_url":"http://www.panoramio.com/photo/55267019","place_id":"9349ac3ab3fe57594111f99c0e7819fbd67d7a17","upload_date":"05 July 2011","width":500},{"height":500,"latitude":-6.8134949999999996,"longitude":107.56944499999997,"owner_id":466539,"owner_name":"Ian Stehbens","owner_url":"http://www.panoramio.com/user/466539","photo_file_url":"http://mw2.google.com/mw-panoramio/photos/medium/39449334.jpg","photo_id":39449334,"photo_title":"Mountain Morning: Cisarua Falls, Lembang, Indonesia","photo_url":"http://www.panoramio.com/photo/39449334","upload_date":"18 August 2010","width":333},{"height":382,"latitude":-6.89506,"longitude":107.60458599999998,"owner_id":3702693,"owner_name":"ikung adiwar","owner_url":"http://www.panoramio.com/user/3702693","photo_file_url":"http://mw2.google.com/mw-panoramio/photos/medium/55861633.jpg","photo_id":55861633,"photo_title":"Cihampelas Walk - Bandung","photo_url":"http://www.panoramio.com/photo/55861633","place_id":"8396cbcdbf23d65f2c2261bd659b126220f5b9fe","upload_date":"17 July 2011","width":500},{"height":351,"latitude":-6.9277449999999998,"longitude":107.63673199999999,"owner_id":3702693,"owner_name":"ikung adiwar","owner_url":"http://www.panoramio.com/user/3702693","photo_file_url":"http://mw2.google.com/mw-panoramio/photos/medium/55861625.jpg","photo_id":55861625,"photo_title":"Bandung Supermal","photo_url":"http://www.panoramio.com/photo/55861625","upload_date":"17 July 2011","width":500},{"height":357,"latitude":-6.9053699999999996,"longitude":107.597522,"owner_id":3702693,"owner_name":"ikung adiwar","owner_url":"http://www.panoramio.com/user/3702693","photo_file_url":"http://mw2.google.com/mw-panoramio/photos/medium/55861820.jpg","photo_id":55861820,"photo_title":"Istana Plaza - Pasir Kaliki , Bandung","photo_url":"http://www.panoramio.com/photo/55861820","place_id":"96a63927c8a4ba194256d6a4a8a3142388435873","upload_date":"17 July 2011","width":500},{"height":500,"latitude":-6.8634930000000001,"longitude":107.59417200000001,"owner_id":3702693,"owner_name":"ikung adiwar","owner_url":"http://www.panoramio.com/user/3702693","photo_file_url":"http://mw2.google.com/mw-panoramio/photos/medium/36691299.jpg","photo_id":36691299,"photo_title":"Masdjid Universitas Pendidikan Indonesia","photo_url":"http://www.panoramio.com/photo/36691299","upload_date":"13 June 2010","width":342},{"height":345,"latitude":-6.8903730000000003,"longitude":107.574367,"owner_id":3702693,"owner_name":"ikung adiwar","owner_url":"http://www.panoramio.com/user/3702693","photo_file_url":"http://mw2.google.com/mw-panoramio/photos/medium/36691279.jpg","photo_id":36691279,"photo_title":"Gerbang Tol PASTEUR","photo_url":"http://www.panoramio.com/photo/36691279","place_id":"b78f5b4a5867d06680da27c7c3f4780973a40ba7","upload_date":"13 June 2010","width":500},{"height":500,"latitude":-6.9599320000000002,"longitude":107.580314,"owner_id":3702693,"owner_name":"ikung adiwar","owner_url":"http://www.panoramio.com/user/3702693","photo_file_url":"http://mw2.google.com/mw-panoramio/photos/medium/54778214.jpg","photo_id":54778214,"photo_title":"MIKO Mall \" Front Canopy","photo_url":"http://www.panoramio.com/photo/54778214","place_id":"ab2bcfeff83ea15879eb556ede7a5eee72cab8a1","upload_date":"26 June 2011","width":350},{"height":339,"latitude":-6.8128570000000002,"longitude":107.619704,"owner_id":3702693,"owner_name":"ikung adiwar","owner_url":"http://www.panoramio.com/user/3702693","photo_file_url":"http://mw2.google.com/mw-panoramio/photos/medium/36691235.jpg","photo_id":36691235,"photo_title":"Masjid Besar Lembang","photo_url":"http://www.panoramio.com/photo/36691235","upload_date":"13 June 2010","width":500},{"height":375,"latitude":-6.856725,"longitude":107.63133999999999,"owner_id":36909,"owner_name":"Luthfi Amara","owner_url":"http://www.panoramio.com/user/36909","photo_file_url":"http://mw2.google.com/mw-panoramio/photos/medium/6366738.jpg","photo_id":6366738,"photo_title":"pine forest of Bandung","photo_url":"http://www.panoramio.com/photo/6366738","upload_date":"08 December 2007","width":500},{"height":336,"latitude":-6.8953040000000003,"longitude":107.589361,"owner_id":3702693,"owner_name":"ikung adiwar","owner_url":"http://www.panoramio.com/user/3702693","photo_file_url":"http://mw2.google.com/mw-panoramio/photos/medium/54708706.jpg","photo_id":54708706,"photo_title":"Hotel Grand Aquila , Bandung","photo_url":"http://www.panoramio.com/photo/54708706","place_id":"10e2efb51115bcf764a34ccd1f4f12588325b359","upload_date":"25 June 2011","width":500},{"height":333,"latitude":-6.8180540000000001,"longitude":107.58142900000001,"owner_id":466539,"owner_name":"Ian Stehbens","owner_url":"http://www.panoramio.com/user/466539","photo_file_url":"http://mw2.google.com/mw-panoramio/photos/medium/39589992.jpg","photo_id":39589992,"photo_title":"Javanese Landscape near Lembang","photo_url":"http://www.panoramio.com/photo/39589992","upload_date":"21 August 2010","width":500},{"height":500,"latitude":-6.9207340000000004,"longitude":107.60733399999999,"owner_id":80934,"owner_name":"Ferry Zuljanna","owner_url":"http://www.panoramio.com/user/80934","photo_file_url":"http://mw2.google.com/mw-panoramio/photos/medium/792210.jpg","photo_id":792210,"photo_title":"Masjid_Agung_Bandung","photo_url":"http://www.panoramio.com/photo/792210","upload_date":"12 February 2007","width":375},{"height":333,"latitude":-6.9147860000000003,"longitude":107.594572,"owner_id":167424,"owner_name":"senna3","owner_url":"http://www.panoramio.com/user/167424","photo_file_url":"http://mw2.google.com/mw-panoramio/photos/medium/4708916.jpg","photo_id":4708916,"photo_title":"Indonesia, Rice fields near Bandung, June 1988","photo_url":"http://www.panoramio.com/photo/4708916","upload_date":"17 September 2007","width":500},{"height":339,"latitude":-6.84511,"longitude":107.505641,"owner_id":3702693,"owner_name":"ikung adiwar","owner_url":"http://www.panoramio.com/user/3702693","photo_file_url":"http://mw2.google.com/mw-panoramio/photos/medium/36771610.jpg","photo_id":36771610,"photo_title":"Tol Gate Padalarang Barat","photo_url":"http://www.panoramio.com/photo/36771610","upload_date":"15 June 2010","width":500},{"height":375,"latitude":-6.9093429999999998,"longitude":107.60793,"owner_id":401858,"owner_name":"bocah.info","owner_url":"http://www.panoramio.com/user/401858","photo_file_url":"http://mw2.google.com/mw-panoramio/photos/medium/5607254.jpg","photo_id":5607254,"photo_title":"WASTUKANTJANA","photo_url":"http://www.panoramio.com/photo/5607254","upload_date":"28 October 2007","width":500},{"height":375,"latitude":-6.8119620000000003,"longitude":107.599797,"owner_id":7052842,"owner_name":"rudy_guan","owner_url":"http://www.panoramio.com/user/7052842","photo_file_url":"http://mw2.google.com/mw-panoramio/photos/medium/89491589.jpg","photo_id":89491589,"photo_title":"Vipassana Graha - Balinese-style arch","photo_url":"http://www.panoramio.com/photo/89491589","upload_date":"29 April 2013","width":500},{"height":500,"latitude":-6.9222939999999999,"longitude":107.61747800000001,"owner_id":401858,"owner_name":"bocah.info","owner_url":"http://www.panoramio.com/user/401858","photo_file_url":"http://mw2.google.com/mw-panoramio/photos/medium/5607215.jpg","photo_id":5607215,"photo_title":"SIMPANG LIMA","photo_url":"http://www.panoramio.com/photo/5607215","upload_date":"28 October 2007","width":375},{"height":333,"latitude":-6.982062,"longitude":107.56537899999999,"owner_id":3702693,"owner_name":"ikung adiwar","owner_url":"http://www.panoramio.com/user/3702693","photo_file_url":"http://mw2.google.com/mw-panoramio/photos/medium/36150040.jpg","photo_id":36150040,"photo_title":"Bandara Sulaiman , Bandung","photo_url":"http://www.panoramio.com/photo/36150040","place_id":"fec82b6c5e723d9cd81b83a8a5e356a11f6f85fa","upload_date":"30 May 2010","width":500},{"height":375,"latitude":-6.8246609999999999,"longitude":107.615848,"owner_id":401858,"owner_name":"bocah.info","owner_url":"http://www.panoramio.com/user/401858","photo_file_url":"http://mw2.google.com/mw-panoramio/photos/medium/7406587.jpg","photo_id":7406587,"photo_title":"OBSERVATORIUM BOSCHA","photo_url":"http://www.panoramio.com/photo/7406587","upload_date":"27 January 2008","width":500},{"height":500,"latitude":-7.0369149999999996,"longitude":107.496607,"owner_id":3702693,"owner_name":"ikung adiwar","owner_url":"http://www.panoramio.com/user/3702693","photo_file_url":"http://mw2.google.com/mw-panoramio/photos/medium/36150139.jpg","photo_id":36150139,"photo_title":"Old Bridge - Ciwidey","photo_url":"http://www.panoramio.com/photo/36150139","upload_date":"30 May 2010","width":334},{"height":500,"latitude":-6.8849200000000002,"longitude":107.613021,"owner_id":401858,"owner_name":"bocah.info","owner_url":"http://www.panoramio.com/user/401858","photo_file_url":"http://mw2.google.com/mw-panoramio/photos/medium/7406707.jpg","photo_id":7406707,"photo_title":"HIGH RISE BUILDING IN NORTH BANDUNG","photo_url":"http://www.panoramio.com/photo/7406707","upload_date":"27 January 2008","width":375},{"height":389,"latitude":-6.904827,"longitude":107.582256,"owner_id":3702693,"owner_name":"ikung adiwar","owner_url":"http://www.panoramio.com/user/3702693","photo_file_url":"http://mw2.google.com/mw-panoramio/photos/medium/57026778.jpg","photo_id":57026778,"photo_title":"Bandara Husein Sastranegara Bandung","photo_url":"http://www.panoramio.com/photo/57026778","place_id":"b8d4311e6f88faba72128be0bf34b5df56bd93cb","upload_date":"08 August 2011","width":500},{"height":295,"latitude":-6.856789,"longitude":107.64793800000001,"owner_id":4246726,"owner_name":"Trigana Udara","owner_url":"http://www.panoramio.com/user/4246726","photo_file_url":"http://mw2.google.com/mw-panoramio/photos/medium/33615250.jpg","photo_id":33615250,"photo_title":"Bandung Night View","photo_url":"http://www.panoramio.com/photo/33615250","upload_date":"25 March 2010","width":500},{"height":332,"latitude":-6.83101,"longitude":107.655126,"owner_id":481201,"owner_name":"Agus G. Riyana","owner_url":"http://www.panoramio.com/user/481201","photo_file_url":"http://mw2.google.com/mw-panoramio/photos/medium/2288054.jpg","photo_id":2288054,"photo_title":"Curug Maribaya","photo_url":"http://www.panoramio.com/photo/2288054","upload_date":"19 May 2007","width":500},{"height":333,"latitude":-6.9569660000000004,"longitude":107.675527,"owner_id":481201,"owner_name":"Agus G. Riyana","owner_url":"http://www.panoramio.com/user/481201","photo_file_url":"http://mw2.google.com/mw-panoramio/photos/medium/2301189.jpg","photo_id":2301189,"photo_title":"Hamparan Sawah (2005)","photo_url":"http://www.panoramio.com/photo/2301189","upload_date":"20 May 2007","width":500},{"height":500,"latitude":-6.8198840000000001,"longitude":107.483175,"owner_id":3702693,"owner_name":"ikung adiwar","owner_url":"http://www.panoramio.com/user/3702693","photo_file_url":"http://mw2.google.com/mw-panoramio/photos/medium/30993897.jpg","photo_id":30993897,"photo_title":"Padalarang Tol Road View From Rail Road","photo_url":"http://www.panoramio.com/photo/30993897","upload_date":"13 January 2010","width":335},{"height":375,"latitude":-6.9307990000000004,"longitude":107.56289,"owner_id":1731172,"owner_name":"Fajar Abdillah","owner_url":"http://www.panoramio.com/user/1731172","photo_file_url":"http://mw2.google.com/mw-panoramio/photos/medium/25013740.jpg","photo_id":25013740,"photo_title":"PT. Kahatex","photo_url":"http://www.panoramio.com/photo/25013740","upload_date":"29 July 2009","width":500},{"height":375,"latitude":-6.8716689999999998,"longitude":107.55538000000001,"owner_id":1731172,"owner_name":"Fajar Abdillah","owner_url":"http://www.panoramio.com/user/1731172","photo_file_url":"http://mw2.google.com/mw-panoramio/photos/medium/24710210.jpg","photo_id":24710210,"photo_title":"Cimahi Convention Hall (1)","photo_url":"http://www.panoramio.com/photo/24710210","upload_date":"21 July 2009","width":500},{"height":375,"latitude":-6.8118670000000003,"longitude":107.629248,"owner_id":717072,"owner_name":"henrivandeputte","owner_url":"http://www.panoramio.com/user/717072","photo_file_url":"http://mw2.google.com/mw-panoramio/photos/medium/6258474.jpg","photo_id":6258474,"photo_title":"Lembang: Gunung Putri ","photo_url":"http://www.panoramio.com/photo/6258474","upload_date":"02 December 2007","width":500},{"height":500,"latitude":-6.7939090000000002,"longitude":107.65436399999999,"owner_id":3702693,"owner_name":"ikung adiwar","owner_url":"http://www.panoramio.com/user/3702693","photo_file_url":"http://mw2.google.com/mw-panoramio/photos/medium/37459858.jpg","photo_id":37459858,"photo_title":"Sindang Reret Hotel @ Restaurant","photo_url":"http://www.panoramio.com/photo/37459858","place_id":"e5473f78c1305fc3eb7747f87571909c0e214fa3","upload_date":"03 July 2010","width":333},{"height":375,"latitude":-6.9114409999999999,"longitude":107.643592,"owner_id":1385490,"owner_name":"Nanang Pudjo Bintoro","owner_url":"http://www.panoramio.com/user/1385490","photo_file_url":"http://mw2.google.com/mw-panoramio/photos/medium/11706789.jpg","photo_id":11706789,"photo_title":"Bandung Trade Mall","photo_url":"http://www.panoramio.com/photo/11706789","upload_date":"01 July 2008","width":500},{"height":332,"latitude":-6.9514760000000004,"longitude":107.719402,"owner_id":2031068,"owner_name":"Krish Gopal","owner_url":"http://www.panoramio.com/user/2031068","photo_file_url":"http://mw2.google.com/mw-panoramio/photos/medium/30423045.jpg","photo_id":30423045,"photo_title":"From Bandung to Banjar","photo_url":"http://www.panoramio.com/photo/30423045","upload_date":"30 December 2009","width":500},{"height":375,"latitude":-6.8303760000000002,"longitude":107.59644400000001,"owner_id":401858,"owner_name":"bocah.info","owner_url":"http://www.panoramio.com/user/401858","photo_file_url":"http://mw2.google.com/mw-panoramio/photos/medium/14682719.jpg","photo_id":14682719,"photo_title":"ELEPHANT SQUAD","photo_url":"http://www.panoramio.com/photo/14682719","upload_date":"04 October 2008","width":500},{"height":375,"latitude":-6.9017920000000004,"longitude":107.538847,"owner_id":1731172,"owner_name":"Fajar Abdillah","owner_url":"http://www.panoramio.com/user/1731172","photo_file_url":"http://mw2.google.com/mw-panoramio/photos/medium/23928530.jpg","photo_id":23928530,"photo_title":"SMK Negeri 1 Cimahi (Mesjid)","photo_url":"http://www.panoramio.com/photo/23928530","upload_date":"28 June 2009","width":500},{"height":375,"latitude":-6.8899309999999998,"longitude":107.533852,"owner_id":1731172,"owner_name":"Fajar Abdillah","owner_url":"http://www.panoramio.com/user/1731172","photo_file_url":"http://mw2.google.com/mw-panoramio/photos/medium/23928225.jpg","photo_id":23928225,"photo_title":"SMP Negeri 2 Cimahi","photo_url":"http://www.panoramio.com/photo/23928225","upload_date":"28 June 2009","width":500},{"height":375,"latitude":-6.899006,"longitude":107.631404,"owner_id":1731172,"owner_name":"Fajar Abdillah","owner_url":"http://www.panoramio.com/user/1731172","photo_file_url":"http://mw2.google.com/mw-panoramio/photos/medium/25311599.jpg","photo_id":25311599,"photo_title":"Kantor Imigrasi Kelas 1 Bandung","photo_url":"http://www.panoramio.com/photo/25311599","upload_date":"06 August 2009","width":500},{"height":333,"latitude":-6.870641,"longitude":107.54374999999999,"owner_id":1731172,"owner_name":"Fajar Abdillah","owner_url":"http://www.panoramio.com/user/1731172","photo_file_url":"http://mw2.google.com/mw-panoramio/photos/medium/33456521.jpg","photo_id":33456521,"photo_title":"SMA Negeri 1 Cimahi","photo_url":"http://www.panoramio.com/photo/33456521","upload_date":"21 March 2010","width":500},{"height":375,"latitude":-6.9966670000000004,"longitude":107.53071399999999,"owner_id":401858,"owner_name":"bocah.info","owner_url":"http://www.panoramio.com/user/401858","photo_file_url":"http://mw2.google.com/mw-panoramio/photos/medium/29842503.jpg","photo_id":29842503,"photo_title":"SPORT CENTER SI JALAK HARUPAT","photo_url":"http://www.panoramio.com/photo/29842503","upload_date":"13 December 2009","width":500},{"height":500,"latitude":-6.8605590000000003,"longitude":107.50505699999999,"owner_id":3702693,"owner_name":"ikung adiwar","owner_url":"http://www.panoramio.com/user/3702693","photo_file_url":"http://mw2.google.com/mw-panoramio/photos/medium/36691258.jpg","photo_id":36691258,"photo_title":"Tol Road Padalarang","photo_url":"http://www.panoramio.com/photo/36691258","upload_date":"13 June 2010","width":352},{"height":333,"latitude":-6.8096509999999997,"longitude":107.64519100000001,"owner_id":466539,"owner_name":"Ian Stehbens","owner_url":"http://www.panoramio.com/user/466539","photo_file_url":"http://mw2.google.com/mw-panoramio/photos/medium/39590232.jpg","photo_id":39590232,"photo_title":"Jalan Tangkuban Perahu: The climb over the mountain begins","photo_url":"http://www.panoramio.com/photo/39590232","upload_date":"21 August 2010","width":500},{"height":333,"latitude":-6.9038899999999996,"longitude":107.61679200000003,"owner_id":2373208,"owner_name":"BadRuL MN \u00a9","owner_url":"http://www.panoramio.com/user/2373208","photo_file_url":"http://mw2.google.com/mw-panoramio/photos/medium/48547352.jpg","photo_id":48547352,"photo_title":"\u203b\u203b\u203b Survivor \u203b\u203b\u203b - whats left for me to carry on","photo_url":"http://www.panoramio.com/photo/48547352","upload_date":"23 February 2011","width":500},{"height":300,"latitude":-6.9062510000000001,"longitude":107.61615899999998,"owner_id":2373208,"owner_name":"BadRuL MN \u00a9","owner_url":"http://www.panoramio.com/user/2373208","photo_file_url":"http://mw2.google.com/mw-panoramio/photos/medium/31774390.jpg","photo_id":31774390,"photo_title":"The Secret factory outlet","photo_url":"http://www.panoramio.com/photo/31774390","upload_date":"03 February 2010","width":500},{"height":375,"latitude":-6.9146260000000002,"longitude":107.614152,"owner_id":401858,"owner_name":"bocah.info","owner_url":"http://www.panoramio.com/user/401858","photo_file_url":"http://mw2.google.com/mw-panoramio/photos/medium/5607224.jpg","photo_id":5607224,"photo_title":"JUNIOR HIGH SCHOOL 5","photo_url":"http://www.panoramio.com/photo/5607224","upload_date":"28 October 2007","width":500},{"height":500,"latitude":-6.8611240000000002,"longitude":107.594122,"owner_id":401858,"owner_name":"bocah.info","owner_url":"http://www.panoramio.com/user/401858","photo_file_url":"http://mw2.google.com/mw-panoramio/photos/medium/7406596.jpg","photo_id":7406596,"photo_title":"VILLA ISOLA","photo_url":"http://www.panoramio.com/photo/7406596","upload_date":"27 January 2008","width":375},{"height":375,"latitude":-6.903937,"longitude":107.618787,"owner_id":4487214,"owner_name":"Lucien Kivit","owner_url":"http://www.panoramio.com/user/4487214","photo_file_url":"http://mw2.google.com/mw-panoramio/photos/medium/40118263.jpg","photo_id":40118263,"photo_title":"Gedung sate, Bandung, Indonesia","photo_url":"http://www.panoramio.com/photo/40118263","place_id":"9349ac3ab3fe57594111f99c0e7819fbd67d7a17","upload_date":"31 August 2010","width":500},{"height":375,"latitude":-6.9214209999999996,"longitude":107.60640600000001,"owner_id":401858,"owner_name":"bocah.info","owner_url":"http://www.panoramio.com/user/401858","photo_file_url":"http://mw2.google.com/mw-panoramio/photos/medium/4513744.jpg","photo_id":4513744,"photo_title":"GRAND MASQUE BANDUNG","photo_url":"http://www.panoramio.com/photo/4513744","upload_date":"08 September 2007","width":500},{"height":353,"latitude":-6.8676750000000002,"longitude":107.628497,"owner_id":1627143,"owner_name":"Wind Rider","owner_url":"http://www.panoramio.com/user/1627143","photo_file_url":"http://mw2.google.com/mw-panoramio/photos/medium/22208305.jpg","photo_id":22208305,"photo_title":"Bandung My Hometown","photo_url":"http://www.panoramio.com/photo/22208305","upload_date":"10 May 2009","width":500},{"height":500,"latitude":-6.9216550000000003,"longitude":107.610821,"owner_id":401858,"owner_name":"bocah.info","owner_url":"http://www.panoramio.com/user/401858","photo_file_url":"http://mw2.google.com/mw-panoramio/photos/medium/4513700.jpg","photo_id":4513700,"photo_title":"KILOMETER NOL BANDUNG","photo_url":"http://www.panoramio.com/photo/4513700","upload_date":"08 September 2007","width":375},{"height":500,"latitude":-6.8572569999999997,"longitude":107.628293,"owner_id":401858,"owner_name":"bocah.info","owner_url":"http://www.panoramio.com/user/401858","photo_file_url":"http://mw2.google.com/mw-panoramio/photos/medium/7406533.jpg","photo_id":7406533,"photo_title":"JOGGING TRACK ON THE JUNGLE","photo_url":"http://www.panoramio.com/photo/7406533","upload_date":"27 January 2008","width":375},{"height":500,"latitude":-6.8880460000000001,"longitude":107.61041299999999,"owner_id":401858,"owner_name":"bocah.info","owner_url":"http://www.panoramio.com/user/401858","photo_file_url":"http://mw2.google.com/mw-panoramio/photos/medium/7406607.jpg","photo_id":7406607,"photo_title":"STAIRWAY OF ITB","photo_url":"http://www.panoramio.com/photo/7406607","upload_date":"27 January 2008","width":375},{"height":500,"latitude":-6.9024200000000002,"longitude":107.61853000000001,"owner_id":401858,"owner_name":"bocah.info","owner_url":"http://www.panoramio.com/user/401858","photo_file_url":"http://mw2.google.com/mw-panoramio/photos/medium/5376627.jpg","photo_id":5376627,"photo_title":"GEDUNG SATE","photo_url":"http://www.panoramio.com/photo/5376627","place_id":"9349ac3ab3fe57594111f99c0e7819fbd67d7a17","upload_date":"17 October 2007","width":333},{"height":500,"latitude":-6.8174979999999996,"longitude":107.612286,"owner_id":3702693,"owner_name":"ikung adiwar","owner_url":"http://www.panoramio.com/user/3702693","photo_file_url":"http://mw2.google.com/mw-panoramio/photos/medium/36771607.jpg","photo_id":36771607,"photo_title":"Lembang horse Rickshaw","photo_url":"http://www.panoramio.com/photo/36771607","upload_date":"15 June 2010","width":333},{"height":500,"latitude":-6.8199569999999996,"longitude":107.58673,"owner_id":401858,"owner_name":"bocah.info","owner_url":"http://www.panoramio.com/user/401858","photo_file_url":"http://mw2.google.com/mw-panoramio/photos/medium/14682794.jpg","photo_id":14682794,"photo_title":"STRAWBERRY GARDEN","photo_url":"http://www.panoramio.com/photo/14682794","upload_date":"04 October 2008","width":375},{"height":375,"latitude":-6.9141789999999999,"longitude":107.601069,"owner_id":401858,"owner_name":"bocah.info","owner_url":"http://www.panoramio.com/user/401858","photo_file_url":"http://mw2.google.com/mw-panoramio/photos/medium/14684620.jpg","photo_id":14684620,"photo_title":"RAILWAY STATION OF BANDUNG","photo_url":"http://www.panoramio.com/photo/14684620","upload_date":"04 October 2008","width":500},{"height":300,"latitude":-6.9080209999999997,"longitude":107.62188300000003,"owner_id":2373208,"owner_name":"BadRuL MN \u00a9","owner_url":"http://www.panoramio.com/user/2373208","photo_file_url":"http://mw2.google.com/mw-panoramio/photos/medium/31774424.jpg","photo_id":31774424,"photo_title":"Trishaws in Cihapit Bandung","photo_url":"http://www.panoramio.com/photo/31774424","upload_date":"03 February 2010","width":500},{"height":500,"latitude":-6.8912100000000001,"longitude":107.607018,"owner_id":401858,"owner_name":"bocah.info","owner_url":"http://www.panoramio.com/user/401858","photo_file_url":"http://mw2.google.com/mw-panoramio/photos/medium/5376643.jpg","photo_id":5376643,"photo_title":"OLD TREE AT ZOO","photo_url":"http://www.panoramio.com/photo/5376643","upload_date":"17 October 2007","width":333},{"height":333,"latitude":-6.9071379999999998,"longitude":107.616985,"owner_id":2373208,"owner_name":"BadRuL MN \u00a9","owner_url":"http://www.panoramio.com/user/2373208","photo_file_url":"http://mw2.google.com/mw-panoramio/photos/medium/31858428.jpg","photo_id":31858428,"photo_title":"Indonesian Postal Department","photo_url":"http://www.panoramio.com/photo/31858428","upload_date":"06 February 2010","width":500},{"height":375,"latitude":-6.8846160000000003,"longitude":107.608311,"owner_id":401858,"owner_name":"bocah.info","owner_url":"http://www.panoramio.com/user/401858","photo_file_url":"http://mw2.google.com/mw-panoramio/photos/medium/7406527.jpg","photo_id":7406527,"photo_title":"FULL COLOR AT SILIWANGI","photo_url":"http://www.panoramio.com/photo/7406527","upload_date":"27 January 2008","width":500},{"height":500,"latitude":-6.9159889999999997,"longitude":107.60891700000001,"owner_id":401858,"owner_name":"bocah.info","owner_url":"http://www.panoramio.com/user/401858","photo_file_url":"http://mw2.google.com/mw-panoramio/photos/medium/4572220.jpg","photo_id":4572220,"photo_title":"SIGHT OF BRAGA","photo_url":"http://www.panoramio.com/photo/4572220","upload_date":"11 September 2007","width":375},{"height":375,"latitude":-6.8144020000000003,"longitude":107.62300399999999,"owner_id":401858,"owner_name":"bocah.info","owner_url":"http://www.panoramio.com/user/401858","photo_file_url":"http://mw2.google.com/mw-panoramio/photos/medium/11930708.jpg","photo_id":11930708,"photo_title":"JUNCTION AT LEMBANG","photo_url":"http://www.panoramio.com/photo/11930708","upload_date":"09 July 2008","width":500},{"height":500,"latitude":-6.9140389999999998,"longitude":107.60276399999999,"owner_id":3702693,"owner_name":"ikung adiwar","owner_url":"http://www.panoramio.com/user/3702693","photo_file_url":"http://mw2.google.com/mw-panoramio/photos/medium/37275072.jpg","photo_id":37275072,"photo_title":"Stasiun Hall - Walking Coridor","photo_url":"http://www.panoramio.com/photo/37275072","upload_date":"28 June 2010","width":333},{"height":500,"latitude":-6.834632,"longitude":107.658945,"owner_id":401858,"owner_name":"bocah.info","owner_url":"http://www.panoramio.com/user/401858","photo_file_url":"http://mw2.google.com/mw-panoramio/photos/medium/7406576.jpg","photo_id":7406576,"photo_title":"MARIBAYA BRIDGE","photo_url":"http://www.panoramio.com/photo/7406576","upload_date":"27 January 2008","width":375},{"height":500,"latitude":-6.8811229999999997,"longitude":107.60457700000001,"owner_id":401858,"owner_name":"bocah.info","owner_url":"http://www.panoramio.com/user/401858","photo_file_url":"http://mw2.google.com/mw-panoramio/photos/medium/7406601.jpg","photo_id":7406601,"photo_title":"FROM 22nd FLOOR of CIUMBULEUIT APARTEMENT","photo_url":"http://www.panoramio.com/photo/7406601","upload_date":"27 January 2008","width":375},{"height":375,"latitude":-6.917853,"longitude":107.612345,"owner_id":401858,"owner_name":"bocah.info","owner_url":"http://www.panoramio.com/user/401858","photo_file_url":"http://mw2.google.com/mw-panoramio/photos/medium/9078065.jpg","photo_id":9078065,"photo_title":"SOCCER PLAYER","photo_url":"http://www.panoramio.com/photo/9078065","upload_date":"03 April 2008","width":500},{"height":375,"latitude":-6.9211970000000003,"longitude":107.608981,"owner_id":401858,"owner_name":"bocah.info","owner_url":"http://www.panoramio.com/user/401858","photo_file_url":"http://mw2.google.com/mw-panoramio/photos/medium/4513837.jpg","photo_id":4513837,"photo_title":"MERDEKA BUILDING","photo_url":"http://www.panoramio.com/photo/4513837","upload_date":"08 September 2007","width":500},{"height":500,"latitude":-6.8929939999999998,"longitude":107.610258,"owner_id":401858,"owner_name":"bocah.info","owner_url":"http://www.panoramio.com/user/401858","photo_file_url":"http://mw2.google.com/mw-panoramio/photos/medium/5485180.jpg","photo_id":5485180,"photo_title":"FRONT OF ITB","photo_url":"http://www.panoramio.com/photo/5485180","upload_date":"22 October 2007","width":333},{"height":300,"latitude":-6.8681970000000003,"longitude":107.62058999999999,"owner_id":2373208,"owner_name":"BadRuL MN \u00a9","owner_url":"http://www.panoramio.com/user/2373208","photo_file_url":"http://mw2.google.com/mw-panoramio/photos/medium/31772428.jpg","photo_id":31772428,"photo_title":"pedlars along Jalan Dago Bandung","photo_url":"http://www.panoramio.com/photo/31772428","upload_date":"03 February 2010","width":500},{"height":340,"latitude":-6.9173910000000003,"longitude":107.602957,"owner_id":2373208,"owner_name":"BadRuL MN \u00a9","owner_url":"http://www.panoramio.com/user/2373208","photo_file_url":"http://mw2.google.com/mw-panoramio/photos/medium/48546664.jpg","photo_id":48546664,"photo_title":"Bandung - as seen from Pasar Baru","photo_url":"http://www.panoramio.com/photo/48546664","upload_date":"23 February 2011","width":500},{"height":375,"latitude":-6.9025480000000003,"longitude":107.522088,"owner_id":1731172,"owner_name":"Fajar Abdillah","owner_url":"http://www.panoramio.com/user/1731172","photo_file_url":"http://mw2.google.com/mw-panoramio/photos/medium/26404820.jpg","photo_id":26404820,"photo_title":"SMA Negeri 4 Cimahi","photo_url":"http://www.panoramio.com/photo/26404820","upload_date":"03 September 2009","width":500},{"height":375,"latitude":-6.9044540000000003,"longitude":107.603284,"owner_id":401858,"owner_name":"bocah.info","owner_url":"http://www.panoramio.com/user/401858","photo_file_url":"http://mw2.google.com/mw-panoramio/photos/medium/14682435.jpg","photo_id":14682435,"photo_title":"WATCH AT ROUDED","photo_url":"http://www.panoramio.com/photo/14682435","upload_date":"04 October 2008","width":500},{"height":500,"latitude":-6.8988889999999996,"longitude":107.609094,"owner_id":401858,"owner_name":"bocah.info","owner_url":"http://www.panoramio.com/user/401858","photo_file_url":"http://mw2.google.com/mw-panoramio/photos/medium/14684318.jpg","photo_id":14684318,"photo_title":"PASOPATI BRIDGE VIEW FROM TAMAN SARI","photo_url":"http://www.panoramio.com/photo/14684318","upload_date":"04 October 2008","width":375},{"height":375,"latitude":-6.92624,"longitude":107.636324,"owner_id":1731172,"owner_name":"Fajar Abdillah","owner_url":"http://www.panoramio.com/user/1731172","photo_file_url":"http://mw2.google.com/mw-panoramio/photos/medium/24068684.jpg","photo_id":24068684,"photo_title":"Bandung Super Mall (2)","photo_url":"http://www.panoramio.com/photo/24068684","upload_date":"03 July 2009","width":500},{"height":500,"latitude":-6.8747639999999999,"longitude":107.596841,"owner_id":401858,"owner_name":"bocah.info","owner_url":"http://www.panoramio.com/user/401858","photo_file_url":"http://mw2.google.com/mw-panoramio/photos/medium/10437846.jpg","photo_id":10437846,"photo_title":"SETIABUDHI APARTEMEN","photo_url":"http://www.panoramio.com/photo/10437846","upload_date":"20 May 2008","width":375},{"height":500,"latitude":-6.8937609999999996,"longitude":107.604985,"owner_id":401858,"owner_name":"bocah.info","owner_url":"http://www.panoramio.com/user/401858","photo_file_url":"http://mw2.google.com/mw-panoramio/photos/medium/10437856.jpg","photo_id":10437856,"photo_title":"CIHAMPELAS WALK","photo_url":"http://www.panoramio.com/photo/10437856","upload_date":"20 May 2008","width":375},{"height":333,"latitude":-6.9060199999999998,"longitude":107.61775699999998,"owner_id":2373208,"owner_name":"BadRuL MN \u00a9","owner_url":"http://www.panoramio.com/user/2373208","photo_file_url":"http://mw2.google.com/mw-panoramio/photos/medium/31858486.jpg","photo_id":31858486,"photo_title":"Factory outlet","photo_url":"http://www.panoramio.com/photo/31858486","upload_date":"06 February 2010","width":500},{"height":375,"latitude":-6.8817079999999997,"longitude":107.59941100000003,"owner_id":2156287,"owner_name":"mohd salim-yunus","owner_url":"http://www.panoramio.com/user/2156287","photo_file_url":"http://mw2.google.com/mw-panoramio/photos/medium/36587211.jpg","photo_id":36587211,"photo_title":"HOUSE OF DONATELLO. LOVE YOUR FEET","photo_url":"http://www.panoramio.com/photo/36587211","upload_date":"10 June 2010","width":500},{"height":333,"latitude":-6.9065519999999996,"longitude":107.614643,"owner_id":2373208,"owner_name":"BadRuL MN \u00a9","owner_url":"http://www.panoramio.com/user/2373208","photo_file_url":"http://mw2.google.com/mw-panoramio/photos/medium/31774287.jpg","photo_id":31774287,"photo_title":"Rumah Makan Riung Sari","photo_url":"http://www.panoramio.com/photo/31774287","upload_date":"03 February 2010","width":500},{"height":333,"latitude":-6.9066380000000001,"longitude":107.61224300000003,"owner_id":2373208,"owner_name":"BadRuL MN \u00a9","owner_url":"http://www.panoramio.com/user/2373208","photo_file_url":"http://mw2.google.com/mw-panoramio/photos/medium/31772350.jpg","photo_id":31772350,"photo_title":"Bandung Riau Junction","photo_url":"http://www.panoramio.com/photo/31772350","place_id":"62c710d0b9d49a276e17431bd2f04033423b5bc0","upload_date":"03 February 2010","width":500},{"height":500,"latitude":-6.9067189999999998,"longitude":107.58744799999999,"owner_id":3702693,"owner_name":"ikung adiwar","owner_url":"http://www.panoramio.com/user/3702693","photo_file_url":"http://mw2.google.com/mw-panoramio/photos/medium/36150058.jpg","photo_id":36150058,"photo_title":"Statue Husein Sastranegara , Bandung","photo_url":"http://www.panoramio.com/photo/36150058","upload_date":"30 May 2010","width":368},{"height":333,"latitude":-6.8129939999999998,"longitude":107.61567599999999,"owner_id":3702693,"owner_name":"ikung adiwar","owner_url":"http://www.panoramio.com/user/3702693","photo_file_url":"http://mw2.google.com/mw-panoramio/photos/medium/36771364.jpg","photo_id":36771364,"photo_title":"Kantor Polsek Lembang","photo_url":"http://www.panoramio.com/photo/36771364","upload_date":"15 June 2010","width":500},{"height":500,"latitude":-6.8280320000000003,"longitude":107.607179,"owner_id":401858,"owner_name":"bocah.info","owner_url":"http://www.panoramio.com/user/401858","photo_file_url":"http://mw2.google.com/mw-panoramio/photos/medium/14742386.jpg","photo_id":14742386,"photo_title":"OTTO CEMENTARY","photo_url":"http://www.panoramio.com/photo/14742386","upload_date":"05 October 2008","width":375},{"height":365,"latitude":-6.9037930000000003,"longitude":107.61091899999997,"owner_id":3702693,"owner_name":"ikung adiwar","owner_url":"http://www.panoramio.com/user/3702693","photo_file_url":"http://mw2.google.com/mw-panoramio/photos/medium/55861843.jpg","photo_id":55861843,"photo_title":"GRANDE Fashion Gallery , Bandung","photo_url":"http://www.panoramio.com/photo/55861843","upload_date":"17 July 2011","width":500},{"height":375,"latitude":-6.8118980000000002,"longitude":107.580872,"owner_id":717072,"owner_name":"henrivandeputte","owner_url":"http://www.panoramio.com/user/717072","photo_file_url":"http://mw2.google.com/mw-panoramio/photos/medium/6258497.jpg","photo_id":6258497,"photo_title":"Lembang","photo_url":"http://www.panoramio.com/photo/6258497","upload_date":"02 December 2007","width":500},{"height":358,"latitude":-6.8845039999999997,"longitude":107.581515,"owner_id":1385490,"owner_name":"Nanang Pudjo Bintoro","owner_url":"http://www.panoramio.com/user/1385490","photo_file_url":"http://mw2.google.com/mw-panoramio/photos/medium/11706809.jpg","photo_id":11706809,"photo_title":"Majesty Apartement's","photo_url":"http://www.panoramio.com/photo/11706809","upload_date":"01 July 2008","width":500},{"height":335,"latitude":-6.8888819999999997,"longitude":107.595726,"owner_id":481201,"owner_name":"Agus G. Riyana","owner_url":"http://www.panoramio.com/user/481201","photo_file_url":"http://mw2.google.com/mw-panoramio/photos/medium/17882811.jpg","photo_id":17882811,"photo_title":"Kupu2 Kertas","photo_url":"http://www.panoramio.com/photo/17882811","upload_date":"16 January 2009","width":500},{"height":430,"latitude":-6.8163729999999996,"longitude":107.58924000000002,"owner_id":1385490,"owner_name":"Nanang Pudjo Bintoro","owner_url":"http://www.panoramio.com/user/1385490","photo_file_url":"http://mw2.google.com/mw-panoramio/photos/medium/48043328.jpg","photo_id":48043328,"photo_title":"'Gemercik' Kampung Daun","photo_url":"http://www.panoramio.com/photo/48043328","upload_date":"13 February 2011","width":500},{"height":500,"latitude":-6.9142640000000002,"longitude":107.610285,"owner_id":401858,"owner_name":"bocah.info","owner_url":"http://www.panoramio.com/user/401858","photo_file_url":"http://mw2.google.com/mw-panoramio/photos/medium/14684164.jpg","photo_id":14684164,"photo_title":"BIG CHURCH","photo_url":"http://www.panoramio.com/photo/14684164","upload_date":"04 October 2008","width":375},{"height":278,"latitude":-6.955686,"longitude":107.67746099999999,"owner_id":481201,"owner_name":"Agus G. Riyana","owner_url":"http://www.panoramio.com/user/481201","photo_file_url":"http://mw2.google.com/mw-panoramio/photos/medium/20000864.jpg","photo_id":20000864,"photo_title":"Dawn Time @ South Bandung (2005)","photo_url":"http://www.panoramio.com/photo/20000864","upload_date":"13 March 2009","width":500},{"height":500,"latitude":-6.8544450000000001,"longitude":107.63760600000001,"owner_id":401858,"owner_name":"bocah.info","owner_url":"http://www.panoramio.com/user/401858","photo_file_url":"http://mw2.google.com/mw-panoramio/photos/medium/7406567.jpg","photo_id":7406567,"photo_title":"CAVE BELANDA","photo_url":"http://www.panoramio.com/photo/7406567","upload_date":"27 January 2008","width":375},{"height":375,"latitude":-6.8671049999999996,"longitude":107.546657,"owner_id":1731172,"owner_name":"Fajar Abdillah","owner_url":"http://www.panoramio.com/user/1731172","photo_file_url":"http://mw2.google.com/mw-panoramio/photos/medium/24240044.jpg","photo_id":24240044,"photo_title":"Perumahan Nusa Hijau","photo_url":"http://www.panoramio.com/photo/24240044","upload_date":"08 July 2009","width":500},{"height":375,"latitude":-6.8690439999999997,"longitude":107.55029400000001,"owner_id":1731172,"owner_name":"Fajar Abdillah","owner_url":"http://www.panoramio.com/user/1731172","photo_file_url":"http://mw2.google.com/mw-panoramio/photos/medium/27176011.jpg","photo_id":27176011,"photo_title":"Rumahku di Cimahi (belakang)","photo_url":"http://www.panoramio.com/photo/27176011","upload_date":"26 September 2009","width":500},{"height":375,"latitude":-6.8737729999999999,"longitude":107.55989099999999,"owner_id":1731172,"owner_name":"Fajar Abdillah","owner_url":"http://www.panoramio.com/user/1731172","photo_file_url":"http://mw2.google.com/mw-panoramio/photos/medium/26045828.jpg","photo_id":26045828,"photo_title":"SMA Negeri 3 Cimahi (Kantor)","photo_url":"http://www.panoramio.com/photo/26045828","upload_date":"24 August 2009","width":500},{"height":333,"latitude":-6.8780200000000002,"longitude":107.59467699999999,"owner_id":1731172,"owner_name":"Fajar Abdillah","owner_url":"http://www.panoramio.com/user/1731172","photo_file_url":"http://mw2.google.com/mw-panoramio/photos/medium/48401256.jpg","photo_id":48401256,"photo_title":"Waterboom Karang Setra","photo_url":"http://www.panoramio.com/photo/48401256","upload_date":"20 February 2011","width":500},{"height":332,"latitude":-6.9029210000000001,"longitude":107.579005,"owner_id":1731172,"owner_name":"Fajar Abdillah","owner_url":"http://www.panoramio.com/user/1731172","photo_file_url":"http://mw2.google.com/mw-panoramio/photos/medium/27548742.jpg","photo_id":27548742,"photo_title":"Bandara Husein Sastranegara Bandung (2)","photo_url":"http://www.panoramio.com/photo/27548742","upload_date":"06 October 2009","width":500},{"height":333,"latitude":-6.8923759999999996,"longitude":107.53650800000003,"owner_id":1731172,"owner_name":"Fajar Abdillah","owner_url":"http://www.panoramio.com/user/1731172","photo_file_url":"http://mw2.google.com/mw-panoramio/photos/medium/32880001.jpg","photo_id":32880001,"photo_title":"Pusdik Armed (1)","photo_url":"http://www.panoramio.com/photo/32880001","upload_date":"05 March 2010","width":500},{"height":375,"latitude":-6.8837060000000001,"longitude":107.54000000000001,"owner_id":1731172,"owner_name":"Fajar Abdillah","owner_url":"http://www.panoramio.com/user/1731172","photo_file_url":"http://mw2.google.com/mw-panoramio/photos/medium/25728648.jpg","photo_id":25728648,"photo_title":"Monumen Pesawat @Pusdik Bekang","photo_url":"http://www.panoramio.com/photo/25728648","upload_date":"16 August 2009","width":500},{"height":333,"latitude":-6.8930470000000001,"longitude":107.52817199999998,"owner_id":1731172,"owner_name":"Fajar Abdillah","owner_url":"http://www.panoramio.com/user/1731172","photo_file_url":"http://mw2.google.com/mw-panoramio/photos/medium/31393259.jpg","photo_id":31393259,"photo_title":"'Pasar Kaget' @Lapangan Brigif (3)","photo_url":"http://www.panoramio.com/photo/31393259","upload_date":"24 January 2010","width":500},{"height":305,"latitude":-6.8877490000000003,"longitude":107.60218399999999,"owner_id":2373208,"owner_name":"BadRuL MN \u00a9","owner_url":"http://www.panoramio.com/user/2373208","photo_file_url":"http://mw2.google.com/mw-panoramio/photos/medium/48527127.jpg","photo_id":48527127,"photo_title":"Bandung street scene - hawkers","photo_url":"http://www.panoramio.com/photo/48527127","upload_date":"22 February 2011","width":500},{"height":375,"latitude":-6.869211,"longitude":107.55613599999998,"owner_id":1731172,"owner_name":"Fajar Abdillah","owner_url":"http://www.panoramio.com/user/1731172","photo_file_url":"http://mw2.google.com/mw-panoramio/photos/medium/25146567.jpg","photo_id":25146567,"photo_title":"Green House Pemkot Cimahi (2)","photo_url":"http://www.panoramio.com/photo/25146567","upload_date":"01 August 2009","width":500}]}