{"count":5808,"has_more":true,"map_location":{"lat":-6.2076045000000004,"lon":106.82061754269087,"panoramio_zoom":7},"photos":[{"height":500,"latitude":-6.2239630000000004,"longitude":106.846349,"owner_id":4962511,"owner_name":"Manek Taolin","owner_url":"http://www.panoramio.com/user/4962511","photo_file_url":"http://mw2.google.com/mw-panoramio/photos/medium/55205542.jpg","photo_id":55205542,"photo_title":"Jakarta 2012 years ago","photo_url":"http://www.panoramio.com/photo/55205542","upload_date":"04 July 2011","width":306},{"height":333,"latitude":-6.1995519999999997,"longitude":106.799271,"owner_id":1721864,"owner_name":"Aganto Seno","owner_url":"http://www.panoramio.com/user/1721864","photo_file_url":"http://mw2.google.com/mw-panoramio/photos/medium/41737040.jpg","photo_id":41737040,"photo_title":"Sunrise light from 12th floor Ibis Slipi Hotel","photo_url":"http://www.panoramio.com/photo/41737040","upload_date":"05 October 2010","width":500},{"height":376,"latitude":-6.1964959999999998,"longitude":106.82233200000002,"owner_id":4246726,"owner_name":"Trigana Udara","owner_url":"http://www.panoramio.com/user/4246726","photo_file_url":"http://mw2.google.com/mw-panoramio/photos/medium/37961165.jpg","photo_id":37961165,"photo_title":"Concrete Forest  in Jakarta - Please Enlarge to see the beauty","photo_url":"http://www.panoramio.com/photo/37961165","place_id":"67b24100d9001e8bfbcd932608d2339e49f89721","upload_date":"15 July 2010","width":500},{"height":335,"latitude":-6.129893,"longitude":106.832793,"owner_id":1721864,"owner_name":"Aganto Seno","owner_url":"http://www.panoramio.com/user/1721864","photo_file_url":"http://mw2.google.com/mw-panoramio/photos/medium/47859213.jpg","photo_id":47859213,"photo_title":"Reflection of Ancol gate","photo_url":"http://www.panoramio.com/photo/47859213","upload_date":"10 February 2011","width":500},{"height":335,"latitude":-6.1756380000000002,"longitude":106.829156,"owner_id":1721864,"owner_name":"Aganto Seno","owner_url":"http://www.panoramio.com/user/1721864","photo_file_url":"http://mw2.google.com/mw-panoramio/photos/medium/47859138.jpg","photo_id":47859138,"photo_title":"The National Monument, lamp, and bench","photo_url":"http://www.panoramio.com/photo/47859138","upload_date":"10 February 2011","width":500},{"height":370,"latitude":-6.1186150000000001,"longitude":106.847441,"owner_id":6564922,"owner_name":"cuongbv","owner_url":"http://www.panoramio.com/user/6564922","photo_file_url":"http://mw2.google.com/mw-panoramio/photos/medium/72687031.jpg","photo_id":72687031,"photo_title":"Ng\u01b0\u1eddi ra \u0111i","photo_url":"http://www.panoramio.com/photo/72687031","upload_date":"26 May 2012","width":500},{"height":375,"latitude":-6.1314799999999998,"longitude":106.81050399999998,"owner_id":4487214,"owner_name":"Lucien Kivit","owner_url":"http://www.panoramio.com/user/4487214","photo_file_url":"http://mw2.google.com/mw-panoramio/photos/medium/35510467.jpg","photo_id":35510467,"photo_title":"Pasar Hoender bridge, Jakarta, Indonesia","photo_url":"http://www.panoramio.com/photo/35510467","upload_date":"14 May 2010","width":500},{"height":375,"latitude":-6.3013760000000003,"longitude":106.88587699999999,"owner_id":4246726,"owner_name":"Trigana Udara","owner_url":"http://www.panoramio.com/user/4246726","photo_file_url":"http://mw2.google.com/mw-panoramio/photos/medium/62071262.jpg","photo_id":62071262,"photo_title":"Musium \"Purna Bhakti Pertiwi\" Taman Mini Indonesia Indah, DKI Jakarta, Indonesia","photo_url":"http://www.panoramio.com/photo/62071262","upload_date":"13 November 2011","width":500},{"height":500,"latitude":-6.2411329999999996,"longitude":106.829499,"owner_id":3702693,"owner_name":"ikung adiwar","owner_url":"http://www.panoramio.com/user/3702693","photo_file_url":"http://mw2.google.com/mw-panoramio/photos/medium/37121427.jpg","photo_id":37121427,"photo_title":"Trans 7 TV Station","photo_url":"http://www.panoramio.com/photo/37121427","place_id":"f84bbf902ec6fed0678c354067e5086d6e677aae","upload_date":"24 June 2010","width":334},{"height":333,"latitude":-6.145626,"longitude":106.815546,"owner_id":3702693,"owner_name":"ikung adiwar","owner_url":"http://www.panoramio.com/user/3702693","photo_file_url":"http://mw2.google.com/mw-panoramio/photos/medium/31649540.jpg","photo_id":31649540,"photo_title":"LTC Lindeteves, Glodok","photo_url":"http://www.panoramio.com/photo/31649540","place_id":"e0487195dc2fc122c483beed40c1c561d09d834d","upload_date":"31 January 2010","width":500},{"height":333,"latitude":-6.3023569999999998,"longitude":106.814291,"owner_id":3702693,"owner_name":"ikung adiwar","owner_url":"http://www.panoramio.com/user/3702693","photo_file_url":"http://mw2.google.com/mw-panoramio/photos/medium/32205382.jpg","photo_id":32205382,"photo_title":"Mall Cilandak","photo_url":"http://www.panoramio.com/photo/32205382","place_id":"3eca3c353c890f194c3841cba5e394d5dd0346b2","upload_date":"15 February 2010","width":500},{"height":375,"latitude":-6.3134639999999997,"longitude":106.82168300000001,"owner_id":472658,"owner_name":"IPAAT","owner_url":"http://www.panoramio.com/user/472658","photo_file_url":"http://mw2.google.com/mw-panoramio/photos/medium/31803026.jpg","photo_id":31803026,"photo_title":"Orangutan in the Schmutzer primate center of Ragunan Zoological Garden","photo_url":"http://www.panoramio.com/photo/31803026","upload_date":"04 February 2010","width":500},{"height":375,"latitude":-6.1043700000000003,"longitude":106.94091800000001,"owner_id":582673,"owner_name":"Kepri","owner_url":"http://www.panoramio.com/user/582673","photo_file_url":"http://mw2.google.com/mw-panoramio/photos/medium/41441025.jpg","photo_id":41441025,"photo_title":"Perkampungan Kumuh dekat Kali Cilincing 4","photo_url":"http://www.panoramio.com/photo/41441025","upload_date":"29 September 2010","width":500},{"height":334,"latitude":-6.3242390000000004,"longitude":106.784443,"owner_id":3702693,"owner_name":"ikung adiwar","owner_url":"http://www.panoramio.com/user/3702693","photo_file_url":"http://mw2.google.com/mw-panoramio/photos/medium/31393988.jpg","photo_id":31393988,"photo_title":"Mal Cinere, Depok","photo_url":"http://www.panoramio.com/photo/31393988","upload_date":"24 January 2010","width":500},{"height":333,"latitude":-6.0950680000000004,"longitude":106.791315,"owner_id":466539,"owner_name":"Ian Stehbens","owner_url":"http://www.panoramio.com/user/466539","photo_file_url":"http://mw2.google.com/mw-panoramio/photos/medium/3092186.jpg","photo_id":3092186,"photo_title":"Regatta Ikon, North Jakarta","photo_url":"http://www.panoramio.com/photo/3092186","upload_date":"03 July 2007","width":500},{"height":333,"latitude":-6.1085950000000002,"longitude":106.775436,"owner_id":466539,"owner_name":"Ian Stehbens","owner_url":"http://www.panoramio.com/user/466539","photo_file_url":"http://mw2.google.com/mw-panoramio/photos/medium/3092229.jpg","photo_id":3092229,"photo_title":"Javanese fishermen share their evening meal of fish and rice before sailing out for a night's fishing, North Jakarta","photo_url":"http://www.panoramio.com/photo/3092229","upload_date":"03 July 2007","width":500},{"height":232,"latitude":-6.2837949999999996,"longitude":106.73441500000001,"owner_id":3702693,"owner_name":"ikung adiwar","owner_url":"http://www.panoramio.com/user/3702693","photo_file_url":"http://mw2.google.com/mw-panoramio/photos/medium/31309528.jpg","photo_id":31309528,"photo_title":"Jakarta Outer Ring Road Gate at Pondok Ranji","photo_url":"http://www.panoramio.com/photo/31309528","upload_date":"21 January 2010","width":500},{"height":333,"latitude":-6.1823480000000002,"longitude":106.75505200000001,"owner_id":466539,"owner_name":"Ian Stehbens","owner_url":"http://www.panoramio.com/user/466539","photo_file_url":"http://mw2.google.com/mw-panoramio/photos/medium/3092250.jpg","photo_id":3092250,"photo_title":"Homes of the wealthy, Kedoya Gardens, Jakarta","photo_url":"http://www.panoramio.com/photo/3092250","upload_date":"03 July 2007","width":500},{"height":333,"latitude":-6.1898669999999996,"longitude":106.79789700000001,"owner_id":1721864,"owner_name":"Aganto Seno","owner_url":"http://www.panoramio.com/user/1721864","photo_file_url":"http://mw2.google.com/mw-panoramio/photos/medium/46348823.jpg","photo_id":46348823,"photo_title":"Jakarta cityscape from Menara Peninsula Hotel","photo_url":"http://www.panoramio.com/photo/46348823","upload_date":"10 January 2011","width":500},{"height":375,"latitude":-6.1797880000000003,"longitude":106.79517699999997,"owner_id":582673,"owner_name":"Kepri","owner_url":"http://www.panoramio.com/user/582673","photo_file_url":"http://mw2.google.com/mw-panoramio/photos/medium/41340255.jpg","photo_id":41340255,"photo_title":"Highway toll road in Jakarta 1","photo_url":"http://www.panoramio.com/photo/41340255","upload_date":"27 September 2010","width":500},{"height":315,"latitude":-6.271827,"longitude":106.900312,"owner_id":3702693,"owner_name":"ikung adiwar","owner_url":"http://www.panoramio.com/user/3702693","photo_file_url":"http://mw2.google.com/mw-panoramio/photos/medium/35873805.jpg","photo_id":35873805,"photo_title":"Royale Jakarta Golf Club Sign Board","photo_url":"http://www.panoramio.com/photo/35873805","place_id":"26538927fbf89289fad99d7e60237ff85f981c0c","upload_date":"23 May 2010","width":500},{"height":334,"latitude":-6.2838909999999997,"longitude":106.780479,"owner_id":3702693,"owner_name":"ikung adiwar","owner_url":"http://www.panoramio.com/user/3702693","photo_file_url":"http://mw2.google.com/mw-panoramio/photos/medium/28265652.jpg","photo_id":28265652,"photo_title":"24hr Mc.Donalds @ Metro Pondok indah","photo_url":"http://www.panoramio.com/photo/28265652","upload_date":"27 October 2009","width":500},{"height":330,"latitude":-6.185441,"longitude":106.8223,"owner_id":1222245,"owner_name":"Bert Lanting Fotografie","owner_url":"http://www.panoramio.com/user/1222245","photo_file_url":"http://mw2.google.com/mw-panoramio/photos/medium/9040547.jpg","photo_id":9040547,"photo_title":"Jakarta","photo_url":"http://www.panoramio.com/photo/9040547","upload_date":"02 April 2008","width":500},{"height":319,"latitude":-6.0999319999999999,"longitude":106.804104,"owner_id":2287361,"owner_name":"Bueliscan","owner_url":"http://www.panoramio.com/user/2287361","photo_file_url":"http://mw2.google.com/mw-panoramio/photos/medium/14567113.jpg","photo_id":14567113,"photo_title":"im Hafen von Batavia (slide scan)","photo_url":"http://www.panoramio.com/photo/14567113","upload_date":"30 September 2008","width":500},{"height":333,"latitude":-6.1181099999999997,"longitude":106.808224,"owner_id":466539,"owner_name":"Ian Stehbens","owner_url":"http://www.panoramio.com/user/466539","photo_file_url":"http://mw2.google.com/mw-panoramio/photos/medium/3092322.jpg","photo_id":3092322,"photo_title":"Phinisi - traditional high prowed vessels at berth in Jakarta - Old Batavia's historic harbour.","photo_url":"http://www.panoramio.com/photo/3092322","upload_date":"03 July 2007","width":500},{"height":205,"latitude":-6.2281219999999999,"longitude":106.788461,"owner_id":3702693,"owner_name":"ikung adiwar","owner_url":"http://www.panoramio.com/user/3702693","photo_file_url":"http://mw2.google.com/mw-panoramio/photos/medium/29973200.jpg","photo_id":29973200,"photo_title":"Pool of Pertamina Simpruk Sport Complex, Senayan","photo_url":"http://www.panoramio.com/photo/29973200","upload_date":"17 December 2009","width":500},{"height":333,"latitude":-6.2390689999999998,"longitude":106.807283,"owner_id":3702693,"owner_name":"ikung adiwar","owner_url":"http://www.panoramio.com/user/3702693","photo_file_url":"http://mw2.google.com/mw-panoramio/photos/medium/41117194.jpg","photo_id":41117194,"photo_title":"KFC On Wolter Monginsidi Juction","photo_url":"http://www.panoramio.com/photo/41117194","upload_date":"22 September 2010","width":500},{"height":333,"latitude":-6.2261329999999999,"longitude":106.81174,"owner_id":3702693,"owner_name":"ikung adiwar","owner_url":"http://www.panoramio.com/user/3702693","photo_file_url":"http://mw2.google.com/mw-panoramio/photos/medium/32332448.jpg","photo_id":32332448,"photo_title":"Electronik City , SCBD Sudirman","photo_url":"http://www.panoramio.com/photo/32332448","place_id":"130052475643bc7d2045062207aeba43a795004c","upload_date":"19 February 2010","width":500},{"height":290,"latitude":-6.2599809999999998,"longitude":106.766306,"owner_id":3702693,"owner_name":"ikung adiwar","owner_url":"http://www.panoramio.com/user/3702693","photo_file_url":"http://mw2.google.com/mw-panoramio/photos/medium/28266395.jpg","photo_id":28266395,"photo_title":"Exit JORR road at RC veteran - Jakarta","photo_url":"http://www.panoramio.com/photo/28266395","upload_date":"27 October 2009","width":500},{"height":333,"latitude":-6.1238710000000003,"longitude":106.780157,"owner_id":466539,"owner_name":"Ian Stehbens","owner_url":"http://www.panoramio.com/user/466539","photo_file_url":"http://mw2.google.com/mw-panoramio/photos/medium/3232486.jpg","photo_id":3232486,"photo_title":"Residential street in Pluit, North Jakarta ","photo_url":"http://www.panoramio.com/photo/3232486","upload_date":"10 July 2007","width":500},{"height":500,"latitude":-6.2287410000000003,"longitude":106.798694,"owner_id":3702693,"owner_name":"ikung adiwar","owner_url":"http://www.panoramio.com/user/3702693","photo_file_url":"http://mw2.google.com/mw-panoramio/photos/medium/31795706.jpg","photo_id":31795706,"photo_title":"SCTV Building","photo_url":"http://www.panoramio.com/photo/31795706","place_id":"6a6758c338c124f4a29239bf1aeef3cda9bc3d7a","upload_date":"04 February 2010","width":326},{"height":442,"latitude":-6.0932750000000002,"longitude":106.85159,"owner_id":167424,"owner_name":"senna3","owner_url":"http://www.panoramio.com/user/167424","photo_file_url":"http://mw2.google.com/mw-panoramio/photos/medium/813653.jpg","photo_id":813653,"photo_title":"Indonesia, Jakarta, Harbour Tandjong Priok, June 1988","photo_url":"http://www.panoramio.com/photo/813653","upload_date":"14 February 2007","width":500},{"height":304,"latitude":-6.1269939999999998,"longitude":106.79207700000001,"owner_id":3702693,"owner_name":"ikung adiwar","owner_url":"http://www.panoramio.com/user/3702693","photo_file_url":"http://mw2.google.com/mw-panoramio/photos/medium/31600757.jpg","photo_id":31600757,"photo_title":"Pluit Junction","photo_url":"http://www.panoramio.com/photo/31600757","place_id":"c7cb6a8cbc18cc136d6d1e6228635e34d95cfab4","upload_date":"30 January 2010","width":500},{"height":379,"latitude":-6.2786569999999999,"longitude":106.84474499999999,"owner_id":4246726,"owner_name":"Trigana Udara","owner_url":"http://www.panoramio.com/user/4246726","photo_file_url":"http://mw2.google.com/mw-panoramio/photos/medium/33192913.jpg","photo_id":33192913,"photo_title":"Flood in Jakarta Selatan 2006","photo_url":"http://www.panoramio.com/photo/33192913","upload_date":"13 March 2010","width":500},{"height":334,"latitude":-6.1043830000000003,"longitude":106.76247999999998,"owner_id":3702693,"owner_name":"ikung adiwar","owner_url":"http://www.panoramio.com/user/3702693","photo_file_url":"http://mw2.google.com/mw-panoramio/photos/medium/55267140.jpg","photo_id":55267140,"photo_title":"Bridge Way to Mangrove Forest  ","photo_url":"http://www.panoramio.com/photo/55267140","upload_date":"05 July 2011","width":500},{"height":375,"latitude":-6.2435479999999997,"longitude":106.84707299999999,"owner_id":401858,"owner_name":"bocah.info","owner_url":"http://www.panoramio.com/user/401858","photo_file_url":"http://mw2.google.com/mw-panoramio/photos/medium/20343113.jpg","photo_id":20343113,"photo_title":"PANCORAN STATUE VIEW FROM GELALEL","photo_url":"http://www.panoramio.com/photo/20343113","upload_date":"22 March 2009","width":500},{"height":335,"latitude":-6.3030350000000004,"longitude":106.762862,"owner_id":481201,"owner_name":"Agus G. Riyana","owner_url":"http://www.panoramio.com/user/481201","photo_file_url":"http://mw2.google.com/mw-panoramio/photos/medium/2584987.jpg","photo_id":2584987,"photo_title":"Situ Gintung (2007)","photo_url":"http://www.panoramio.com/photo/2584987","upload_date":"05 June 2007","width":500},{"height":333,"latitude":-6.1536879999999998,"longitude":106.84641000000001,"owner_id":3702693,"owner_name":"ikung adiwar","owner_url":"http://www.panoramio.com/user/3702693","photo_file_url":"http://mw2.google.com/mw-panoramio/photos/medium/41227641.jpg","photo_id":41227641,"photo_title":"Kemayoran Fly Over","photo_url":"http://www.panoramio.com/photo/41227641","upload_date":"24 September 2010","width":500},{"height":333,"latitude":-6.1897180000000001,"longitude":106.840289,"owner_id":3702693,"owner_name":"ikung adiwar","owner_url":"http://www.panoramio.com/user/3702693","photo_file_url":"http://mw2.google.com/mw-panoramio/photos/medium/37775004.jpg","photo_id":37775004,"photo_title":"Gedung Seni - IKJ","photo_url":"http://www.panoramio.com/photo/37775004","upload_date":"11 July 2010","width":500},{"height":319,"latitude":-6.2913389999999998,"longitude":106.799638,"owner_id":3702693,"owner_name":"ikung adiwar","owner_url":"http://www.panoramio.com/user/3702693","photo_file_url":"http://mw2.google.com/mw-panoramio/photos/medium/32089462.jpg","photo_id":32089462,"photo_title":"Cilandak Town Square view from Back Parking Area","photo_url":"http://www.panoramio.com/photo/32089462","upload_date":"12 February 2010","width":500},{"height":500,"latitude":-6.2385919999999997,"longitude":106.78146600000002,"owner_id":3702693,"owner_name":"ikung adiwar","owner_url":"http://www.panoramio.com/user/3702693","photo_file_url":"http://mw2.google.com/mw-panoramio/photos/medium/37851028.jpg","photo_id":37851028,"photo_title":"Foto Istimewa - FujiFilm Photo Service , Kebayoran Lama","photo_url":"http://www.panoramio.com/photo/37851028","upload_date":"13 July 2010","width":333},{"height":324,"latitude":-6.3232879999999998,"longitude":106.835075,"owner_id":3702693,"owner_name":"ikung adiwar","owner_url":"http://www.panoramio.com/user/3702693","photo_file_url":"http://mw2.google.com/mw-panoramio/photos/medium/35161988.jpg","photo_id":35161988,"photo_title":"Lenteng Agung Railway CrossRoad","photo_url":"http://www.panoramio.com/photo/35161988","upload_date":"06 May 2010","width":500},{"height":500,"latitude":-6.2016799999999996,"longitude":106.832959,"owner_id":401858,"owner_name":"bocah.info","owner_url":"http://www.panoramio.com/user/401858","photo_file_url":"http://mw2.google.com/mw-panoramio/photos/medium/19580347.jpg","photo_id":19580347,"photo_title":"SUNDA KELAPA MOSQUE","photo_url":"http://www.panoramio.com/photo/19580347","place_id":"fa14c0f81d04f72065a38ef4efae6417ab7772a2","upload_date":"02 March 2009","width":375},{"height":375,"latitude":-6.0823510000000001,"longitude":106.728916,"owner_id":70845,"owner_name":"Chris10 \u00a9","owner_url":"http://www.panoramio.com/user/70845","photo_file_url":"http://mw2.google.com/mw-panoramio/photos/medium/12472775.jpg","photo_id":12472775,"photo_title":"Approach Jakarta with in the background Volcano Gunung Salak","photo_url":"http://www.panoramio.com/photo/12472775","upload_date":"25 July 2008","width":500},{"height":333,"latitude":-6.1649370000000001,"longitude":106.83879,"owner_id":3702693,"owner_name":"ikung adiwar","owner_url":"http://www.panoramio.com/user/3702693","photo_file_url":"http://mw2.google.com/mw-panoramio/photos/medium/37659315.jpg","photo_id":37659315,"photo_title":"Perempatan Gunung Sahari - Senen","photo_url":"http://www.panoramio.com/photo/37659315","upload_date":"08 July 2010","width":500},{"height":322,"latitude":-6.2924040000000003,"longitude":106.81363899999999,"owner_id":3702693,"owner_name":"ikung adiwar","owner_url":"http://www.panoramio.com/user/3702693","photo_file_url":"http://mw2.google.com/mw-panoramio/photos/medium/32163529.jpg","photo_id":32163529,"photo_title":"JORR Tol Road \"Ampera\" Gate-In","photo_url":"http://www.panoramio.com/photo/32163529","upload_date":"14 February 2010","width":500},{"height":500,"latitude":-6.212879,"longitude":106.83014799999999,"owner_id":401858,"owner_name":"bocah.info","owner_url":"http://www.panoramio.com/user/401858","photo_file_url":"http://mw2.google.com/mw-panoramio/photos/medium/20930070.jpg","photo_id":20930070,"photo_title":"ELEVEN AT JAKARTA","photo_url":"http://www.panoramio.com/photo/20930070","upload_date":"07 April 2009","width":375},{"height":333,"latitude":-6.2782039999999997,"longitude":106.807393,"owner_id":3702693,"owner_name":"ikung adiwar","owner_url":"http://www.panoramio.com/user/3702693","photo_file_url":"http://mw2.google.com/mw-panoramio/photos/medium/41117175.jpg","photo_id":41117175,"photo_title":"Restaurant Abuba Steak on Side of Circle\"K store 24 hours","photo_url":"http://www.panoramio.com/photo/41117175","upload_date":"22 September 2010","width":500},{"height":353,"latitude":-6.2186430000000001,"longitude":106.83516199999997,"owner_id":3702693,"owner_name":"ikung adiwar","owner_url":"http://www.panoramio.com/user/3702693","photo_file_url":"http://mw2.google.com/mw-panoramio/photos/medium/56331924.jpg","photo_id":56331924,"photo_title":"Epicentrum Walk , Kuningan - Jakarta","photo_url":"http://www.panoramio.com/photo/56331924","upload_date":"26 July 2011","width":500},{"height":375,"latitude":-6.2648140000000003,"longitude":106.78364399999998,"owner_id":4246726,"owner_name":"Trigana Udara","owner_url":"http://www.panoramio.com/user/4246726","photo_file_url":"http://mw2.google.com/mw-panoramio/photos/medium/42909112.jpg","photo_id":42909112,"photo_title":"PIM, Jakarta","photo_url":"http://www.panoramio.com/photo/42909112","place_id":"64bed013a2c750a16ca719f7fd04bccbc54d1824","upload_date":"29 October 2010","width":500},{"height":500,"latitude":-6.1340219999999999,"longitude":106.830776,"owner_id":3702693,"owner_name":"ikung adiwar","owner_url":"http://www.panoramio.com/user/3702693","photo_file_url":"http://mw2.google.com/mw-panoramio/photos/medium/37659323.jpg","photo_id":37659323,"photo_title":"Enterance WTC ManggaDua","photo_url":"http://www.panoramio.com/photo/37659323","place_id":"1b0ac1040dc8931a2c5ac6293cf5c2b37d30f0dc","upload_date":"08 July 2010","width":333},{"height":500,"latitude":-6.1246369999999999,"longitude":106.84277099999997,"owner_id":582673,"owner_name":"Kepri","owner_url":"http://www.panoramio.com/user/582673","photo_file_url":"http://mw2.google.com/mw-panoramio/photos/medium/39906806.jpg","photo_id":39906806,"photo_title":"Wahana 4D Dufan Ancol","photo_url":"http://www.panoramio.com/photo/39906806","upload_date":"27 August 2010","width":375},{"height":333,"latitude":-6.3001880000000003,"longitude":106.894398,"owner_id":5884723,"owner_name":"Bernardo Nieuwland","owner_url":"http://www.panoramio.com/user/5884723","photo_file_url":"http://mw2.google.com/mw-panoramio/photos/medium/60540341.jpg","photo_id":60540341,"photo_title":"R\u00e9plica del Palacio Pagaruyung","photo_url":"http://www.panoramio.com/photo/60540341","upload_date":"14 October 2011","width":500},{"height":305,"latitude":-6.1195360000000001,"longitude":106.8485,"owner_id":3702693,"owner_name":"ikung adiwar","owner_url":"http://www.panoramio.com/user/3702693","photo_file_url":"http://mw2.google.com/mw-panoramio/photos/medium/30155491.jpg","photo_id":30155491,"photo_title":"View to Ancol Lagoon from Portal Bride","photo_url":"http://www.panoramio.com/photo/30155491","upload_date":"22 December 2009","width":500},{"height":500,"latitude":-6.1866089999999998,"longitude":106.758549,"owner_id":3702693,"owner_name":"ikung adiwar","owner_url":"http://www.panoramio.com/user/3702693","photo_file_url":"http://mw2.google.com/mw-panoramio/photos/medium/39499467.jpg","photo_id":39499467,"photo_title":"metro TV Building","photo_url":"http://www.panoramio.com/photo/39499467","place_id":"c70f8b1ed26f002777d03793e4cc93a1a88c0d2f","upload_date":"19 August 2010","width":333},{"height":500,"latitude":-6.2037009999999997,"longitude":106.82019699999999,"owner_id":121601,"owner_name":"Peter \u0026 Shelly","owner_url":"http://www.panoramio.com/user/121601","photo_file_url":"http://mw2.google.com/mw-panoramio/photos/medium/1133101.jpg","photo_id":1133101,"photo_title":"Kota BNI Wisma 46","photo_url":"http://www.panoramio.com/photo/1133101","place_id":"274f2a2a3a83587097099e933da0bbc91a6ba79f","upload_date":"03 March 2007","width":375},{"height":500,"latitude":-6.2048750000000004,"longitude":106.818609,"owner_id":121601,"owner_name":"Peter \u0026 Shelly","owner_url":"http://www.panoramio.com/user/121601","photo_file_url":"http://mw2.google.com/mw-panoramio/photos/medium/1133125.jpg","photo_id":1133125,"photo_title":"Jakarta Mosque","photo_url":"http://www.panoramio.com/photo/1133125","upload_date":"03 March 2007","width":375},{"height":347,"latitude":-6.2232339999999997,"longitude":106.803138,"owner_id":3702693,"owner_name":"ikung adiwar","owner_url":"http://www.panoramio.com/user/3702693","photo_file_url":"http://mw2.google.com/mw-panoramio/photos/medium/37493438.jpg","photo_id":37493438,"photo_title":"Century Athlelte Hotel - Senayan","photo_url":"http://www.panoramio.com/photo/37493438","place_id":"5eda77f5c910fbdfdb858cc30b582e8238712a50","upload_date":"04 July 2010","width":500},{"height":333,"latitude":-6.1761949999999999,"longitude":106.836652,"owner_id":3702693,"owner_name":"ikung adiwar","owner_url":"http://www.panoramio.com/user/3702693","photo_file_url":"http://mw2.google.com/mw-panoramio/photos/medium/40598505.jpg","photo_id":40598505,"photo_title":"Gate of RSPAD Gatot Subroto, Medical Clinic","photo_url":"http://www.panoramio.com/photo/40598505","place_id":"56a70c6d638e8d4f3f5ffcbf9ae4ca7ecc85569c","upload_date":"11 September 2010","width":500},{"height":333,"latitude":-6.2437550000000002,"longitude":106.79827299999999,"owner_id":3702693,"owner_name":"ikung adiwar","owner_url":"http://www.panoramio.com/user/3702693","photo_file_url":"http://mw2.google.com/mw-panoramio/photos/medium/33588403.jpg","photo_id":33588403,"photo_title":"\"Mal Blok M\" Parking Enterance","photo_url":"http://www.panoramio.com/photo/33588403","upload_date":"24 March 2010","width":500},{"height":357,"latitude":-6.2976770000000002,"longitude":106.884072,"owner_id":3702693,"owner_name":"ikung adiwar","owner_url":"http://www.panoramio.com/user/3702693","photo_file_url":"http://mw2.google.com/mw-panoramio/photos/medium/41129476.jpg","photo_id":41129476,"photo_title":"At - Tiin mesdjid","photo_url":"http://www.panoramio.com/photo/41129476","upload_date":"22 September 2010","width":500},{"height":375,"latitude":-6.1835209999999998,"longitude":106.83438099999999,"owner_id":57893,"owner_name":"ThoiryK","owner_url":"http://www.panoramio.com/user/57893","photo_file_url":"http://mw2.google.com/mw-panoramio/photos/medium/298297.jpg","photo_id":298297,"photo_title":"Jam in Jakarta","photo_url":"http://www.panoramio.com/photo/298297","upload_date":"04 January 2007","width":500},{"height":333,"latitude":-6.196288,"longitude":106.823384,"owner_id":865394,"owner_name":"LutzP","owner_url":"http://www.panoramio.com/user/865394","photo_file_url":"http://mw2.google.com/mw-panoramio/photos/medium/4776319.jpg","photo_id":4776319,"photo_title":"Jakarta - Looking south from the Mandarin Oriental Hotel (1995)","photo_url":"http://www.panoramio.com/photo/4776319","upload_date":"20 September 2007","width":500},{"height":333,"latitude":-6.3328579999999999,"longitude":106.78251699999998,"owner_id":3702693,"owner_name":"ikung adiwar","owner_url":"http://www.panoramio.com/user/3702693","photo_file_url":"http://mw2.google.com/mw-panoramio/photos/medium/37493455.jpg","photo_id":37493455,"photo_title":"Cinere Square","photo_url":"http://www.panoramio.com/photo/37493455","upload_date":"04 July 2010","width":500},{"height":375,"latitude":-6.2997399999999999,"longitude":106.891077,"owner_id":582673,"owner_name":"Kepri","owner_url":"http://www.panoramio.com/user/582673","photo_file_url":"http://mw2.google.com/mw-panoramio/photos/medium/40880402.jpg","photo_id":40880402,"photo_title":"Sungai di Snow Bay TMII","photo_url":"http://www.panoramio.com/photo/40880402","upload_date":"17 September 2010","width":500},{"height":500,"latitude":-6.1964509999999997,"longitude":106.828659,"owner_id":3702693,"owner_name":"ikung adiwar","owner_url":"http://www.panoramio.com/user/3702693","photo_file_url":"http://mw2.google.com/mw-panoramio/photos/medium/34586536.jpg","photo_id":34586536,"photo_title":"Hotel Formule 1 - Menteng ,JKT","photo_url":"http://www.panoramio.com/photo/34586536","place_id":"921cc2ad76b9d71e03427d9ab9da0bd42bacb75f","upload_date":"21 April 2010","width":333},{"height":355,"latitude":-6.1955739999999997,"longitude":106.821828,"owner_id":3702693,"owner_name":"ikung adiwar","owner_url":"http://www.panoramio.com/user/3702693","photo_file_url":"http://mw2.google.com/mw-panoramio/photos/medium/29977973.jpg","photo_id":29977973,"photo_title":"Jakarta on Strike view from Hotel Indonesia","photo_url":"http://www.panoramio.com/photo/29977973","place_id":"8851df00997e203b33218bca3a3791f0c356e469","upload_date":"17 December 2009","width":500},{"height":333,"latitude":-6.1006150000000003,"longitude":106.79002800000001,"owner_id":466539,"owner_name":"Ian Stehbens","owner_url":"http://www.panoramio.com/user/466539","photo_file_url":"http://mw2.google.com/mw-panoramio/photos/medium/3092202.jpg","photo_id":3092202,"photo_title":"Power Stations beside the bay, North Jakarta","photo_url":"http://www.panoramio.com/photo/3092202","upload_date":"03 July 2007","width":500},{"height":500,"latitude":-6.1744440000000003,"longitude":106.829444,"owner_id":1222245,"owner_name":"Bert Lanting Fotografie","owner_url":"http://www.panoramio.com/user/1222245","photo_file_url":"http://mw2.google.com/mw-panoramio/photos/medium/8144864.jpg","photo_id":8144864,"photo_title":"Mesjid","photo_url":"http://www.panoramio.com/photo/8144864","upload_date":"27 February 2008","width":333},{"height":500,"latitude":-6.1279250000000003,"longitude":106.83654799999999,"owner_id":582673,"owner_name":"Kepri","owner_url":"http://www.panoramio.com/user/582673","photo_file_url":"http://mw2.google.com/mw-panoramio/photos/medium/39906827.jpg","photo_id":39906827,"photo_title":"Dufan Ancol Gate","photo_url":"http://www.panoramio.com/photo/39906827","upload_date":"27 August 2010","width":375},{"height":335,"latitude":-6.1754300000000004,"longitude":106.827224,"owner_id":1721864,"owner_name":"Aganto Seno","owner_url":"http://www.panoramio.com/user/1721864","photo_file_url":"http://mw2.google.com/mw-panoramio/photos/medium/47859000.jpg","photo_id":47859000,"photo_title":"Gambir railway station from the top of Monas","photo_url":"http://www.panoramio.com/photo/47859000","upload_date":"10 February 2011","width":500},{"height":333,"latitude":-6.3127060000000004,"longitude":106.91996699999999,"owner_id":466539,"owner_name":"Ian Stehbens","owner_url":"http://www.panoramio.com/user/466539","photo_file_url":"http://mw2.google.com/mw-panoramio/photos/medium/3092216.jpg","photo_id":3092216,"photo_title":"Anglo Chinese School, Jakarta","photo_url":"http://www.panoramio.com/photo/3092216","upload_date":"03 July 2007","width":500},{"height":500,"latitude":-6.3031519999999999,"longitude":106.89962300000001,"owner_id":70845,"owner_name":"Chris10 \u00a9","owner_url":"http://www.panoramio.com/user/70845","photo_file_url":"http://mw2.google.com/mw-panoramio/photos/medium/9856487.jpg","photo_id":9856487,"photo_title":"Taman Mini, Rumah Toraja, North Sulawesi / Selebes","photo_url":"http://www.panoramio.com/photo/9856487","upload_date":"02 May 2008","width":375},{"height":350,"latitude":-6.2671169999999998,"longitude":106.87286799999998,"owner_id":3702693,"owner_name":"ikung adiwar","owner_url":"http://www.panoramio.com/user/3702693","photo_file_url":"http://mw2.google.com/mw-panoramio/photos/medium/54764605.jpg","photo_id":54764605,"photo_title":"Gerbang Tol CILILITAN","photo_url":"http://www.panoramio.com/photo/54764605","upload_date":"26 June 2011","width":500},{"height":375,"latitude":-6.2206289999999997,"longitude":106.831954,"owner_id":3702693,"owner_name":"ikung adiwar","owner_url":"http://www.panoramio.com/user/3702693","photo_file_url":"http://mw2.google.com/mw-panoramio/photos/medium/56883917.jpg","photo_id":56883917,"photo_title":"Halte Busway Pasar Festival , Kuningan","photo_url":"http://www.panoramio.com/photo/56883917","upload_date":"06 August 2011","width":500},{"height":332,"latitude":-6.1705500000000004,"longitude":106.830969,"owner_id":717072,"owner_name":"henrivandeputte","owner_url":"http://www.panoramio.com/user/717072","photo_file_url":"http://mw2.google.com/mw-panoramio/photos/medium/3575616.jpg","photo_id":3575616,"photo_title":"Istiqlal Mosque","photo_url":"http://www.panoramio.com/photo/3575616","place_id":"d14b55529b6b0a32fe49f65822c85be7d8a5bfcf","upload_date":"28 July 2007","width":500},{"height":333,"latitude":-6.126271,"longitude":106.79858400000001,"owner_id":466539,"owner_name":"Ian Stehbens","owner_url":"http://www.panoramio.com/user/466539","photo_file_url":"http://mw2.google.com/mw-panoramio/photos/medium/3092174.jpg","photo_id":3092174,"photo_title":"Looking north from roof of Wesley Methodist School, Pluit, North Jakarta","photo_url":"http://www.panoramio.com/photo/3092174","upload_date":"03 July 2007","width":500},{"height":209,"latitude":-6.0972179999999998,"longitude":106.93785,"owner_id":3702693,"owner_name":"ikung adiwar","owner_url":"http://www.panoramio.com/user/3702693","photo_file_url":"http://mw2.google.com/mw-panoramio/photos/medium/29973213.jpg","photo_id":29973213,"photo_title":"Stone Hiling at Pantai Marunda, Cilincing","photo_url":"http://www.panoramio.com/photo/29973213","upload_date":"17 December 2009","width":500},{"height":375,"latitude":-6.1798359999999999,"longitude":106.82272399999999,"owner_id":472658,"owner_name":"IPAAT","owner_url":"http://www.panoramio.com/user/472658","photo_file_url":"http://mw2.google.com/mw-panoramio/photos/medium/32471756.jpg","photo_id":32471756,"photo_title":"Krishna and Arjuna statues in Mahabharata monument","photo_url":"http://www.panoramio.com/photo/32471756","upload_date":"22 February 2010","width":500},{"height":333,"latitude":-6.2181749999999996,"longitude":106.81039399999997,"owner_id":731311,"owner_name":"john adamson","owner_url":"http://www.panoramio.com/user/731311","photo_file_url":"http://mw2.google.com/mw-panoramio/photos/medium/16004138.jpg","photo_id":16004138,"photo_title":"Jakarta","photo_url":"http://www.panoramio.com/photo/16004138","upload_date":"15 November 2008","width":500},{"height":500,"latitude":-6.1985150000000004,"longitude":106.823319,"owner_id":3702693,"owner_name":"ikung adiwar","owner_url":"http://www.panoramio.com/user/3702693","photo_file_url":"http://mw2.google.com/mw-panoramio/photos/medium/36922561.jpg","photo_id":36922561,"photo_title":"TCT \" Thamrin City Tower - Jakarta","photo_url":"http://www.panoramio.com/photo/36922561","place_id":"2e2d6da1e1cb111ba3715b83f73f5456542649f5","upload_date":"19 June 2010","width":333},{"height":333,"latitude":-6.2880729999999998,"longitude":106.77616,"owner_id":3702693,"owner_name":"ikung adiwar","owner_url":"http://www.panoramio.com/user/3702693","photo_file_url":"http://mw2.google.com/mw-panoramio/photos/medium/32017551.jpg","photo_id":32017551,"photo_title":"Carrefour - Lebak Bulus","photo_url":"http://www.panoramio.com/photo/32017551","upload_date":"10 February 2010","width":500},{"height":332,"latitude":-6.1835849999999999,"longitude":106.823266,"owner_id":57893,"owner_name":"ThoiryK","owner_url":"http://www.panoramio.com/user/57893","photo_file_url":"http://mw2.google.com/mw-panoramio/photos/medium/43359577.jpg","photo_id":43359577,"photo_title":"Which time is correct?","photo_url":"http://www.panoramio.com/photo/43359577","upload_date":"07 November 2010","width":500},{"height":375,"latitude":-6.2351859999999997,"longitude":106.799212,"owner_id":401858,"owner_name":"bocah.info","owner_url":"http://www.panoramio.com/user/401858","photo_file_url":"http://mw2.google.com/mw-panoramio/photos/medium/4729973.jpg","photo_id":4729973,"photo_title":"AL AZHAR JAKARTA","photo_url":"http://www.panoramio.com/photo/4729973","upload_date":"18 September 2007","width":500},{"height":500,"latitude":-6.2815339999999997,"longitude":106.77248,"owner_id":3702693,"owner_name":"ikung adiwar","owner_url":"http://www.panoramio.com/user/3702693","photo_file_url":"http://mw2.google.com/mw-panoramio/photos/medium/33194794.jpg","photo_id":33194794,"photo_title":"Fedex Tower - Lebak Bulus","photo_url":"http://www.panoramio.com/photo/33194794","place_id":"adbbabfc72a02e73266e075025d66def1ba7a58c","upload_date":"13 March 2010","width":333},{"height":333,"latitude":-6.1280739999999998,"longitude":106.789491,"owner_id":466539,"owner_name":"Ian Stehbens","owner_url":"http://www.panoramio.com/user/466539","photo_file_url":"http://mw2.google.com/mw-panoramio/photos/medium/40927234.jpg","photo_id":40927234,"photo_title":"Jakarta Days from Pluitt CBD","photo_url":"http://www.panoramio.com/photo/40927234","upload_date":"18 September 2010","width":500},{"height":333,"latitude":-6.2299540999999996,"longitude":106.83322510000001,"owner_id":4246726,"owner_name":"Trigana Udara","owner_url":"http://www.panoramio.com/user/4246726","photo_file_url":"http://mw2.google.com/mw-panoramio/photos/medium/60638261.jpg","photo_id":60638261,"photo_title":"Jl. Rasuna Said/Kuningan, DKI Jakarta - Indonesia","photo_url":"http://www.panoramio.com/photo/60638261","upload_date":"16 October 2011","width":500},{"height":317,"latitude":-6.213984,"longitude":106.80867600000001,"owner_id":3702693,"owner_name":"ikung adiwar","owner_url":"http://www.panoramio.com/user/3702693","photo_file_url":"http://mw2.google.com/mw-panoramio/photos/medium/54337065.jpg","photo_id":54337065,"photo_title":"Jakarta Semanggi Traffic","photo_url":"http://www.panoramio.com/photo/54337065","upload_date":"17 June 2011","width":500},{"height":500,"latitude":-6.2448119999999996,"longitude":106.782608,"owner_id":3702693,"owner_name":"ikung adiwar","owner_url":"http://www.panoramio.com/user/3702693","photo_file_url":"http://mw2.google.com/mw-panoramio/photos/medium/56776183.jpg","photo_id":56776183,"photo_title":"LOTTE Mart , Gandaria City","photo_url":"http://www.panoramio.com/photo/56776183","place_id":"bf6b7151ff689ccc7d4e39cf253568be057194b2","upload_date":"03 August 2011","width":333},{"height":500,"latitude":-6.1725289999999999,"longitude":106.790188,"owner_id":3702693,"owner_name":"ikung adiwar","owner_url":"http://www.panoramio.com/user/3702693","photo_file_url":"http://mw2.google.com/mw-panoramio/photos/medium/56776202.jpg","photo_id":56776202,"photo_title":"FM-3 Hotel Tower","photo_url":"http://www.panoramio.com/photo/56776202","place_id":"271b338a226fc016b6e8b31ba3407a4ba04ca908","upload_date":"03 August 2011","width":333},{"height":294,"latitude":-6.2672400000000001,"longitude":106.76785599999999,"owner_id":4246726,"owner_name":"Trigana Udara","owner_url":"http://www.panoramio.com/user/4246726","photo_file_url":"http://mw2.google.com/mw-panoramio/photos/medium/34027352.jpg","photo_id":34027352,"photo_title":"Veteran Exit","photo_url":"http://www.panoramio.com/photo/34027352","upload_date":"05 April 2010","width":500},{"height":500,"latitude":-6.1424709999999996,"longitude":106.814758,"owner_id":3702693,"owner_name":"ikung adiwar","owner_url":"http://www.panoramio.com/user/3702693","photo_file_url":"http://mw2.google.com/mw-panoramio/photos/medium/36514137.jpg","photo_id":36514137,"photo_title":"Gate of Glodok Market","photo_url":"http://www.panoramio.com/photo/36514137","upload_date":"08 June 2010","width":333},{"height":500,"latitude":-6.1861899999999999,"longitude":106.80629999999999,"owner_id":1812168,"owner_name":"TWS.TAIWAN","owner_url":"http://www.panoramio.com/user/1812168","photo_file_url":"http://mw2.google.com/mw-panoramio/photos/medium/11412154.jpg","photo_id":11412154,"photo_title":"jakarta_BAJAI  \u5370\u5c3c_ \u96c5\u52a0\u9054","photo_url":"http://www.panoramio.com/photo/11412154","upload_date":"22 June 2008","width":395},{"height":333,"latitude":-6.2981619999999996,"longitude":106.930296,"owner_id":538886,"owner_name":"mainwasser","owner_url":"http://www.panoramio.com/user/538886","photo_file_url":"http://mw2.google.com/mw-panoramio/photos/medium/19135236.jpg","photo_id":19135236,"photo_title":"Gas supply","photo_url":"http://www.panoramio.com/photo/19135236","upload_date":"18 February 2009","width":500},{"height":333,"latitude":-6.3094609999999998,"longitude":106.793494,"owner_id":3702693,"owner_name":"ikung adiwar","owner_url":"http://www.panoramio.com/user/3702693","photo_file_url":"http://mw2.google.com/mw-panoramio/photos/medium/32044291.jpg","photo_id":32044291,"photo_title":"Alfamart Midi at Pondok Labu - Jakarta","photo_url":"http://www.panoramio.com/photo/32044291","upload_date":"11 February 2010","width":500},{"height":500,"latitude":-6.3019949999999998,"longitude":106.900014,"owner_id":1356088,"owner_name":"mohd salim yunus","owner_url":"http://www.panoramio.com/user/1356088","photo_file_url":"http://mw2.google.com/mw-panoramio/photos/medium/21994179.jpg","photo_id":21994179,"photo_title":"WONDERLAND INDONESIA","photo_url":"http://www.panoramio.com/photo/21994179","upload_date":"04 May 2009","width":375},{"height":315,"latitude":-6.3190390000000001,"longitude":106.793772,"owner_id":3702693,"owner_name":"ikung adiwar","owner_url":"http://www.panoramio.com/user/3702693","photo_file_url":"http://mw2.google.com/mw-panoramio/photos/medium/31408466.jpg","photo_id":31408466,"photo_title":"Masjid Nurul Iman , Pangkalan Jati","photo_url":"http://www.panoramio.com/photo/31408466","upload_date":"24 January 2010","width":500},{"height":375,"latitude":-6.1362129999999997,"longitude":106.81198999999999,"owner_id":538886,"owner_name":"mainwasser","owner_url":"http://www.panoramio.com/user/538886","photo_file_url":"http://mw2.google.com/mw-panoramio/photos/medium/19132212.jpg","photo_id":19132212,"photo_title":"Kali Besar","photo_url":"http://www.panoramio.com/photo/19132212","upload_date":"18 February 2009","width":500},{"height":333,"latitude":-6.2662360000000001,"longitude":106.90310999999997,"owner_id":3702693,"owner_name":"ikung adiwar","owner_url":"http://www.panoramio.com/user/3702693","photo_file_url":"http://mw2.google.com/mw-panoramio/photos/medium/35873866.jpg","photo_id":35873866,"photo_title":"View Royale Jakarta Golf Club","photo_url":"http://www.panoramio.com/photo/35873866","place_id":"520028724041c8b2c14c261aed1ec517d8bf2d33","upload_date":"23 May 2010","width":500},{"height":319,"latitude":-6.1255350000000002,"longitude":106.804962,"owner_id":167424,"owner_name":"senna3","owner_url":"http://www.panoramio.com/user/167424","photo_file_url":"http://mw2.google.com/mw-panoramio/photos/medium/4708985.jpg","photo_id":4708985,"photo_title":"Indonesia, Dutch facades in Jakarta, June 1988","photo_url":"http://www.panoramio.com/photo/4708985","upload_date":"17 September 2007","width":500}]}