{"count":829,"has_more":true,"map_location":{"lat":-6.7494804850900003,"lon":108.52186044826051,"panoramio_zoom":7},"photos":[{"height":281,"latitude":-6.704421,"longitude":108.55550199999999,"owner_id":5377850,"owner_name":"Ecko WiBowo","owner_url":"http://www.panoramio.com/user/5377850","photo_file_url":"http://mw2.google.com/mw-panoramio/photos/medium/57498563.jpg","photo_id":57498563,"photo_title":"Chirebon Railways Station","photo_url":"http://www.panoramio.com/photo/57498563","upload_date":"17 August 2011","width":500},{"height":281,"latitude":-6.701301,"longitude":108.50840099999999,"owner_id":5377850,"owner_name":"Ecko WiBowo","owner_url":"http://www.panoramio.com/user/5377850","photo_file_url":"http://mw2.google.com/mw-panoramio/photos/medium/57558282.jpg","photo_id":57558282,"photo_title":"Chirebon Batique Village at Trusmi","photo_url":"http://www.panoramio.com/photo/57558282","upload_date":"18 August 2011","width":500},{"height":375,"latitude":-6.7123460000000001,"longitude":108.522949,"owner_id":7584150,"owner_name":"Devitapra","owner_url":"http://www.panoramio.com/user/7584150","photo_file_url":"http://mw2.google.com/mw-panoramio/photos/medium/93589182.jpg","photo_id":93589182,"photo_title":"Gerbang Kota Cirebon, Kota Berintan","photo_url":"http://www.panoramio.com/photo/93589182","upload_date":"24 July 2013","width":500},{"height":375,"latitude":-6.8574760000000001,"longitude":108.49476500000003,"owner_id":5377850,"owner_name":"Ecko WiBowo","owner_url":"http://www.panoramio.com/user/5377850","photo_file_url":"http://mw2.google.com/mw-panoramio/photos/medium/57499075.jpg","photo_id":57499075,"photo_title":"Romo Gandhi Residence Villa, Chirebon","photo_url":"http://www.panoramio.com/photo/57499075","upload_date":"17 August 2011","width":500},{"height":362,"latitude":-6.7255580000000004,"longitude":108.57006,"owner_id":2992904,"owner_name":"danucerbon","owner_url":"http://www.panoramio.com/user/2992904","photo_file_url":"http://mw2.google.com/mw-panoramio/photos/medium/21369826.jpg","photo_id":21369826,"photo_title":"Masjid Sang Cipta Rasa ","photo_url":"http://www.panoramio.com/photo/21369826","upload_date":"18 April 2009","width":500},{"height":375,"latitude":-6.7979640000000003,"longitude":108.42285500000003,"owner_id":1731172,"owner_name":"Fajar Abdillah","owner_url":"http://www.panoramio.com/user/1731172","photo_file_url":"http://mw2.google.com/mw-panoramio/photos/medium/49583413.jpg","photo_id":49583413,"photo_title":"Situ Cicerem","photo_url":"http://www.panoramio.com/photo/49583413","upload_date":"17 March 2011","width":500},{"height":375,"latitude":-6.8085370000000003,"longitude":108.471767,"owner_id":1731172,"owner_name":"Fajar Abdillah","owner_url":"http://www.panoramio.com/user/1731172","photo_file_url":"http://mw2.google.com/mw-panoramio/photos/medium/49583849.jpg","photo_id":49583849,"photo_title":"Opak Ketan Bakar Ibu Halimah","photo_url":"http://www.panoramio.com/photo/49583849","upload_date":"17 March 2011","width":500},{"height":375,"latitude":-6.8586850000000004,"longitude":108.47326399999997,"owner_id":1731172,"owner_name":"Fajar Abdillah","owner_url":"http://www.panoramio.com/user/1731172","photo_file_url":"http://mw2.google.com/mw-panoramio/photos/medium/49583678.jpg","photo_id":49583678,"photo_title":"Perkebunan PT. Geger Halang","photo_url":"http://www.panoramio.com/photo/49583678","upload_date":"17 March 2011","width":500},{"height":375,"latitude":-6.7158670000000003,"longitude":108.446367,"owner_id":164591,"owner_name":"narotama","owner_url":"http://www.panoramio.com/user/164591","photo_file_url":"http://mw2.google.com/mw-panoramio/photos/medium/1473746.jpg","photo_id":1473746,"photo_title":"Kali Kulon Pecung","photo_url":"http://www.panoramio.com/photo/1473746","upload_date":"24 March 2007","width":500},{"height":375,"latitude":-6.8105349999999998,"longitude":108.43493000000001,"owner_id":1731172,"owner_name":"Fajar Abdillah","owner_url":"http://www.panoramio.com/user/1731172","photo_file_url":"http://mw2.google.com/mw-panoramio/photos/medium/49583535.jpg","photo_id":49583535,"photo_title":"Tugu Batas Desa Pasawahan","photo_url":"http://www.panoramio.com/photo/49583535","upload_date":"17 March 2011","width":500},{"height":333,"latitude":-6.8596219999999999,"longitude":108.44192499999997,"owner_id":6188432,"owner_name":"Harri Daryanto","owner_url":"http://www.panoramio.com/user/6188432","photo_file_url":"http://mw2.google.com/mw-panoramio/photos/medium/58328489.jpg","photo_id":58328489,"photo_title":"Puncak Gunung Ciremai menjelang malam","photo_url":"http://www.panoramio.com/photo/58328489","upload_date":"02 September 2011","width":500},{"height":358,"latitude":-6.8260880000000004,"longitude":108.636932,"owner_id":1385490,"owner_name":"Nanang Pudjo Bintoro","owner_url":"http://www.panoramio.com/user/1385490","photo_file_url":"http://mw2.google.com/mw-panoramio/photos/medium/40799475.jpg","photo_id":40799475,"photo_title":"Bakrie Toll Road Mertapada","photo_url":"http://www.panoramio.com/photo/40799475","upload_date":"15 September 2010","width":500},{"height":375,"latitude":-6.8456140000000003,"longitude":108.46660700000001,"owner_id":1731172,"owner_name":"Fajar Abdillah","owner_url":"http://www.panoramio.com/user/1731172","photo_file_url":"http://mw2.google.com/mw-panoramio/photos/medium/49583640.jpg","photo_id":49583640,"photo_title":"Resort Mandirancan","photo_url":"http://www.panoramio.com/photo/49583640","upload_date":"17 March 2011","width":500},{"height":375,"latitude":-6.7080089999999997,"longitude":108.43332700000002,"owner_id":3181031,"owner_name":"Abu Marwah","owner_url":"http://www.panoramio.com/user/3181031","photo_file_url":"http://mw2.google.com/mw-panoramio/photos/medium/47212279.jpg","photo_id":47212279,"photo_title":"Lampu Merah Palimanan","photo_url":"http://www.panoramio.com/photo/47212279","upload_date":"28 January 2011","width":500},{"height":378,"latitude":-6.7242940000000004,"longitude":108.550211,"owner_id":7584150,"owner_name":"Devitapra","owner_url":"http://www.panoramio.com/user/7584150","photo_file_url":"http://mw2.google.com/mw-panoramio/photos/medium/93619576.jpg","photo_id":93619576,"photo_title":"Polsek Cirebon Barat, Kota Cirebon","photo_url":"http://www.panoramio.com/photo/93619576","upload_date":"24 July 2013","width":500},{"height":334,"latitude":-6.7112369999999997,"longitude":108.54441199999997,"owner_id":3181031,"owner_name":"Abu Marwah","owner_url":"http://www.panoramio.com/user/3181031","photo_file_url":"http://mw2.google.com/mw-panoramio/photos/medium/48195570.jpg","photo_id":48195570,"photo_title":"SMKN 1 Kedawung","photo_url":"http://www.panoramio.com/photo/48195570","upload_date":"16 February 2011","width":500},{"height":378,"latitude":-6.7153960000000001,"longitude":108.567415,"owner_id":7584150,"owner_name":"Devitapra","owner_url":"http://www.panoramio.com/user/7584150","photo_file_url":"http://mw2.google.com/mw-panoramio/photos/medium/93619951.jpg","photo_id":93619951,"photo_title":"Pelabuhan Cirebon, Kota Cirebon","photo_url":"http://www.panoramio.com/photo/93619951","upload_date":"24 July 2013","width":500},{"height":500,"latitude":-6.826695,"longitude":108.62406799999999,"owner_id":1114771,"owner_name":"rajawali2","owner_url":"http://www.panoramio.com/user/1114771","photo_file_url":"http://mw2.google.com/mw-panoramio/photos/medium/10233488.jpg","photo_id":10233488,"photo_title":"PG Sindanglaut","photo_url":"http://www.panoramio.com/photo/10233488","upload_date":"14 May 2008","width":334},{"height":333,"latitude":-6.7900799999999997,"longitude":108.573761,"owner_id":7584150,"owner_name":"Devitapra","owner_url":"http://www.panoramio.com/user/7584150","photo_file_url":"http://mw2.google.com/mw-panoramio/photos/medium/89208700.jpg","photo_id":89208700,"photo_title":"Grace, Cirebon","photo_url":"http://www.panoramio.com/photo/89208700","upload_date":"23 April 2013","width":500},{"height":350,"latitude":-6.7995830000000002,"longitude":108.622384,"owner_id":943740,"owner_name":"Hendry.umar","owner_url":"http://www.panoramio.com/user/943740","photo_file_url":"http://mw2.google.com/mw-panoramio/photos/medium/19045444.jpg","photo_id":19045444,"photo_title":"Tol Kanci","photo_url":"http://www.panoramio.com/photo/19045444","upload_date":"16 February 2009","width":500},{"height":375,"latitude":-6.7122599999999997,"longitude":108.50058999999999,"owner_id":2361881,"owner_name":"deeje7","owner_url":"http://www.panoramio.com/user/2361881","photo_file_url":"http://mw2.google.com/mw-panoramio/photos/medium/15088998.jpg","photo_id":15088998,"photo_title":"Gunung Ciremai dari Pinggir Jalan Tol Setu Kulon","photo_url":"http://www.panoramio.com/photo/15088998","upload_date":"17 October 2008","width":500},{"height":378,"latitude":-6.6867729999999996,"longitude":108.42750599999999,"owner_id":7584150,"owner_name":"Devitapra","owner_url":"http://www.panoramio.com/user/7584150","photo_file_url":"http://mw2.google.com/mw-panoramio/photos/medium/93619346.jpg","photo_id":93619346,"photo_title":"Palimanan, Cirebon - Jatibarang","photo_url":"http://www.panoramio.com/photo/93619346","upload_date":"24 July 2013","width":500},{"height":378,"latitude":-6.7033670000000001,"longitude":108.46784599999999,"owner_id":7584150,"owner_name":"Devitapra","owner_url":"http://www.panoramio.com/user/7584150","photo_file_url":"http://mw2.google.com/mw-panoramio/photos/medium/93620171.jpg","photo_id":93620171,"photo_title":"Koramil Klangenan, Cirebon","photo_url":"http://www.panoramio.com/photo/93620171","upload_date":"24 July 2013","width":500},{"height":500,"latitude":-6.7088510000000001,"longitude":108.53308800000002,"owner_id":4497170,"owner_name":"Nana Ramadhana","owner_url":"http://www.panoramio.com/user/4497170","photo_file_url":"http://mw2.google.com/mw-panoramio/photos/medium/60298939.jpg","photo_id":60298939,"photo_title":"Workshops PO. Bhinneka Cirebon","photo_url":"http://www.panoramio.com/photo/60298939","upload_date":"09 October 2011","width":375},{"height":375,"latitude":-6.7332510000000001,"longitude":108.584919,"owner_id":2361881,"owner_name":"deeje7","owner_url":"http://www.panoramio.com/user/2361881","photo_file_url":"http://mw2.google.com/mw-panoramio/photos/medium/15088851.jpg","photo_id":15088851,"photo_title":"Sunset di Pelabuhan Kejawanan","photo_url":"http://www.panoramio.com/photo/15088851","upload_date":"17 October 2008","width":500},{"height":375,"latitude":-6.8126910000000001,"longitude":108.50138700000002,"owner_id":3953282,"owner_name":"Lis_Ca","owner_url":"http://www.panoramio.com/user/3953282","photo_file_url":"http://mw2.google.com/mw-panoramio/photos/medium/41468760.jpg","photo_id":41468760,"photo_title":"JEMBATAN DANALAMPAH","photo_url":"http://www.panoramio.com/photo/41468760","upload_date":"29 September 2010","width":500},{"height":400,"latitude":-6.7923499999999999,"longitude":108.50181299999997,"owner_id":3953282,"owner_name":"Lis_Ca","owner_url":"http://www.panoramio.com/user/3953282","photo_file_url":"http://mw2.google.com/mw-panoramio/photos/medium/34338139.jpg","photo_id":34338139,"photo_title":"Embung Sarwadadi","photo_url":"http://www.panoramio.com/photo/34338139","upload_date":"13 April 2010","width":500},{"height":375,"latitude":-6.7568349999999997,"longitude":108.440364,"owner_id":1731172,"owner_name":"Fajar Abdillah","owner_url":"http://www.panoramio.com/user/1731172","photo_file_url":"http://mw2.google.com/mw-panoramio/photos/medium/93092092.jpg","photo_id":93092092,"photo_title":"IPHHK PD. Rizky Jati","photo_url":"http://www.panoramio.com/photo/93092092","upload_date":"14 July 2013","width":500},{"height":500,"latitude":-6.7646389999999998,"longitude":108.47866099999999,"owner_id":1497430,"owner_name":"adealam","owner_url":"http://www.panoramio.com/user/1497430","photo_file_url":"http://mw2.google.com/mw-panoramio/photos/medium/8562028.jpg","photo_id":8562028,"photo_title":"Kab. Cirebon","photo_url":"http://www.panoramio.com/photo/8562028","upload_date":"15 March 2008","width":375},{"height":375,"latitude":-6.6725750000000001,"longitude":108.541113,"owner_id":3952442,"owner_name":"dedi dongol","owner_url":"http://www.panoramio.com/user/3952442","photo_file_url":"http://mw2.google.com/mw-panoramio/photos/medium/30019089.jpg","photo_id":30019089,"photo_title":"Makam Sunan Gunung Jati","photo_url":"http://www.panoramio.com/photo/30019089","upload_date":"18 December 2009","width":500},{"height":375,"latitude":-6.6393389701799999,"longitude":108.437637329,"owner_id":4734549,"owner_name":"Ir. Bambang Sutrisno","owner_url":"http://www.panoramio.com/user/4734549","photo_file_url":"http://mw2.google.com/mw-panoramio/photos/medium/42934029.jpg","photo_id":42934029,"photo_title":"PNPM MP Desa Kalianyar Kec. Panguragan Kab. Cirebon","photo_url":"http://www.panoramio.com/photo/42934029","upload_date":"30 October 2010","width":500},{"height":375,"latitude":-6.781174,"longitude":108.52140400000002,"owner_id":2361881,"owner_name":"deeje7","owner_url":"http://www.panoramio.com/user/2361881","photo_file_url":"http://mw2.google.com/mw-panoramio/photos/medium/15088538.jpg","photo_id":15088538,"photo_title":"Cirebon Malam Hari","photo_url":"http://www.panoramio.com/photo/15088538","upload_date":"17 October 2008","width":500},{"height":375,"latitude":-6.7571269999999997,"longitude":108.51692800000001,"owner_id":3953282,"owner_name":"Lis_Ca","owner_url":"http://www.panoramio.com/user/3953282","photo_file_url":"http://mw2.google.com/mw-panoramio/photos/medium/41468746.jpg","photo_id":41468746,"photo_title":"Selamat datang di Bumi Arum Sari","photo_url":"http://www.panoramio.com/photo/41468746","upload_date":"29 September 2010","width":500},{"height":375,"latitude":-6.6934430000000003,"longitude":108.535094,"owner_id":40164,"owner_name":"Hermit S Parwoto","owner_url":"http://www.panoramio.com/user/40164","photo_file_url":"http://mw2.google.com/mw-panoramio/photos/medium/19103124.jpg","photo_id":19103124,"photo_title":"Padi field","photo_url":"http://www.panoramio.com/photo/19103124","upload_date":"17 February 2009","width":500},{"height":375,"latitude":-6.7165699999999999,"longitude":108.51321,"owner_id":1731172,"owner_name":"Fajar Abdillah","owner_url":"http://www.panoramio.com/user/1731172","photo_file_url":"http://mw2.google.com/mw-panoramio/photos/medium/96188063.jpg","photo_id":96188063,"photo_title":"IPHHK PD. Jujur Jaya","photo_url":"http://www.panoramio.com/photo/96188063","upload_date":"13 September 2013","width":500},{"height":375,"latitude":-6.7843970000000002,"longitude":108.626633,"owner_id":1731172,"owner_name":"Fajar Abdillah","owner_url":"http://www.panoramio.com/user/1731172","photo_file_url":"http://mw2.google.com/mw-panoramio/photos/medium/96186882.jpg","photo_id":96186882,"photo_title":"UPTD Balai Pengawasan dan Pengendalian Hasil Hutan","photo_url":"http://www.panoramio.com/photo/96186882","upload_date":"13 September 2013","width":500},{"height":375,"latitude":-6.7523840000000002,"longitude":108.588285,"owner_id":1731172,"owner_name":"Fajar Abdillah","owner_url":"http://www.panoramio.com/user/1731172","photo_file_url":"http://mw2.google.com/mw-panoramio/photos/medium/96187890.jpg","photo_id":96187890,"photo_title":"IPHHK CV. National Rattan","photo_url":"http://www.panoramio.com/photo/96187890","upload_date":"13 September 2013","width":500},{"height":500,"latitude":-6.7468459999999997,"longitude":108.476472,"owner_id":3953282,"owner_name":"Lis_Ca","owner_url":"http://www.panoramio.com/user/3953282","photo_file_url":"http://mw2.google.com/mw-panoramio/photos/medium/32576927.jpg","photo_id":32576927,"photo_title":"EMBUNG RAJADANA","photo_url":"http://www.panoramio.com/photo/32576927","upload_date":"25 February 2010","width":400},{"height":375,"latitude":-6.7807170000000001,"longitude":108.616196,"owner_id":2992904,"owner_name":"danucerbon","owner_url":"http://www.panoramio.com/user/2992904","photo_file_url":"http://mw2.google.com/mw-panoramio/photos/medium/81481831.jpg","photo_id":81481831,"photo_title":"Jembatan Kanci ( Dari Cirebon arah Losari)","photo_url":"http://www.panoramio.com/photo/81481831","upload_date":"02 November 2012","width":500},{"height":248,"latitude":-6.7919869999999998,"longitude":108.650569,"owner_id":1370132,"owner_name":"RiZaL MuKhTaR","owner_url":"http://www.panoramio.com/user/1370132","photo_file_url":"http://mw2.google.com/mw-panoramio/photos/medium/17522914.jpg","photo_id":17522914,"photo_title":"PRINGSEWU Restoran, Km 14 Cirebon-Tegal","photo_url":"http://www.panoramio.com/photo/17522914","upload_date":"05 January 2009","width":500},{"height":375,"latitude":-6.797186,"longitude":108.47618199999999,"owner_id":3953282,"owner_name":"Lis_Ca","owner_url":"http://www.panoramio.com/user/3953282","photo_file_url":"http://mw2.google.com/mw-panoramio/photos/medium/47775033.jpg","photo_id":47775033,"photo_title":"RSP SIDAWANGI","photo_url":"http://www.panoramio.com/photo/47775033","upload_date":"08 February 2011","width":500},{"height":375,"latitude":-6.7296810000000002,"longitude":108.52141499999999,"owner_id":3283622,"owner_name":"dhamrah anwar","owner_url":"http://www.panoramio.com/user/3283622","photo_file_url":"http://mw2.google.com/mw-panoramio/photos/medium/31722834.jpg","photo_id":31722834,"photo_title":"Rumah Pak DHAMRAH ANWAR di Cirebon","photo_url":"http://www.panoramio.com/photo/31722834","upload_date":"02 February 2010","width":500},{"height":333,"latitude":-6.6988580000000004,"longitude":108.54881899999998,"owner_id":345503,"owner_name":"Ramdhani Fitri","owner_url":"http://www.panoramio.com/user/345503","photo_file_url":"http://mw2.google.com/mw-panoramio/photos/medium/13341270.jpg","photo_id":13341270,"photo_title":"Sunset in Cirebon","photo_url":"http://www.panoramio.com/photo/13341270","upload_date":"21 August 2008","width":500},{"height":500,"latitude":-6.701962,"longitude":108.515739,"owner_id":5377850,"owner_name":"Ecko WiBowo","owner_url":"http://www.panoramio.com/user/5377850","photo_file_url":"http://mw2.google.com/mw-panoramio/photos/medium/57631531.jpg","photo_id":57631531,"photo_title":"HD Village at Trusmi,Chirebon","photo_url":"http://www.panoramio.com/photo/57631531","upload_date":"20 August 2011","width":375},{"height":375,"latitude":-6.7939689999999997,"longitude":108.431937,"owner_id":1731172,"owner_name":"Fajar Abdillah","owner_url":"http://www.panoramio.com/user/1731172","photo_file_url":"http://mw2.google.com/mw-panoramio/photos/medium/49583222.jpg","photo_id":49583222,"photo_title":"Tegakan Pohon Pinus @Desa Padamatang","photo_url":"http://www.panoramio.com/photo/49583222","upload_date":"17 March 2011","width":500},{"height":375,"latitude":-6.8012269999999999,"longitude":108.42773299999999,"owner_id":1731172,"owner_name":"Fajar Abdillah","owner_url":"http://www.panoramio.com/user/1731172","photo_file_url":"http://mw2.google.com/mw-panoramio/photos/medium/49583463.jpg","photo_id":49583463,"photo_title":"Mesjid @SMPN 1 Pasawahan","photo_url":"http://www.panoramio.com/photo/49583463","upload_date":"17 March 2011","width":500},{"height":375,"latitude":-6.7057820000000001,"longitude":108.55749600000001,"owner_id":6188432,"owner_name":"Harri Daryanto","owner_url":"http://www.panoramio.com/user/6188432","photo_file_url":"http://mw2.google.com/mw-panoramio/photos/medium/57795911.jpg","photo_id":57795911,"photo_title":"Balai Kota Cirebon ","photo_url":"http://www.panoramio.com/photo/57795911","upload_date":"23 August 2011","width":500},{"height":280,"latitude":-6.7223829999999998,"longitude":108.567556,"owner_id":36909,"owner_name":"Luthfi Amara","owner_url":"http://www.panoramio.com/user/36909","photo_file_url":"http://mw2.google.com/mw-panoramio/photos/medium/74927939.jpg","photo_id":74927939,"photo_title":"Keraton Kanoman ","photo_url":"http://www.panoramio.com/photo/74927939","upload_date":"06 July 2012","width":500},{"height":500,"latitude":-6.707274,"longitude":108.55063000000001,"owner_id":6188432,"owner_name":"Harri Daryanto","owner_url":"http://www.panoramio.com/user/6188432","photo_file_url":"http://mw2.google.com/mw-panoramio/photos/medium/61577267.jpg","photo_id":61577267,"photo_title":"lobby hotel Santika Cirebon","photo_url":"http://www.panoramio.com/photo/61577267","upload_date":"03 November 2011","width":332},{"height":317,"latitude":-6.71746,"longitude":108.570156,"owner_id":6188432,"owner_name":"Harri Daryanto","owner_url":"http://www.panoramio.com/user/6188432","photo_file_url":"http://mw2.google.com/mw-panoramio/photos/medium/61744162.jpg","photo_id":61744162,"photo_title":"BAT Cirebon","photo_url":"http://www.panoramio.com/photo/61744162","upload_date":"06 November 2011","width":500},{"height":375,"latitude":-6.7936870000000003,"longitude":108.429619,"owner_id":1731172,"owner_name":"Fajar Abdillah","owner_url":"http://www.panoramio.com/user/1731172","photo_file_url":"http://mw2.google.com/mw-panoramio/photos/medium/49583278.jpg","photo_id":49583278,"photo_title":"Pohon Besar @Cikole","photo_url":"http://www.panoramio.com/photo/49583278","upload_date":"17 March 2011","width":500},{"height":375,"latitude":-6.7055259999999999,"longitude":108.555415,"owner_id":943740,"owner_name":"Hendry.umar","owner_url":"http://www.panoramio.com/user/943740","photo_file_url":"http://mw2.google.com/mw-panoramio/photos/medium/18495112.jpg","photo_id":18495112,"photo_title":"Inside Cirebon Rail Station","photo_url":"http://www.panoramio.com/photo/18495112","upload_date":"03 February 2009","width":500},{"height":375,"latitude":-6.8087770000000001,"longitude":108.46869300000003,"owner_id":1731172,"owner_name":"Fajar Abdillah","owner_url":"http://www.panoramio.com/user/1731172","photo_file_url":"http://mw2.google.com/mw-panoramio/photos/medium/49583549.jpg","photo_id":49583549,"photo_title":"Lapangan @Kecamatan Mandirancan","photo_url":"http://www.panoramio.com/photo/49583549","upload_date":"17 March 2011","width":500},{"height":375,"latitude":-6.8544879999999999,"longitude":108.47448199999997,"owner_id":1731172,"owner_name":"Fajar Abdillah","owner_url":"http://www.panoramio.com/user/1731172","photo_file_url":"http://mw2.google.com/mw-panoramio/photos/medium/49583666.jpg","photo_id":49583666,"photo_title":"Resort Cilimus","photo_url":"http://www.panoramio.com/photo/49583666","upload_date":"17 March 2011","width":500},{"height":280,"latitude":-6.7363540000000004,"longitude":108.543644,"owner_id":36909,"owner_name":"Luthfi Amara","owner_url":"http://www.panoramio.com/user/36909","photo_file_url":"http://mw2.google.com/mw-panoramio/photos/medium/74928265.jpg","photo_id":74928265,"photo_title":"Sunyaragi Park","photo_url":"http://www.panoramio.com/photo/74928265","upload_date":"06 July 2012","width":500},{"height":378,"latitude":-6.7122529999999996,"longitude":108.550833,"owner_id":7584150,"owner_name":"Devitapra","owner_url":"http://www.panoramio.com/user/7584150","photo_file_url":"http://mw2.google.com/mw-panoramio/photos/medium/93619650.jpg","photo_id":93619650,"photo_title":"Monumen Tugu, Kota Cirebon","photo_url":"http://www.panoramio.com/photo/93619650","upload_date":"24 July 2013","width":500},{"height":375,"latitude":-6.7156969999999996,"longitude":108.44627000000003,"owner_id":164591,"owner_name":"narotama","owner_url":"http://www.panoramio.com/user/164591","photo_file_url":"http://mw2.google.com/mw-panoramio/photos/medium/1504144.jpg","photo_id":1504144,"photo_title":"Kali Kulon","photo_url":"http://www.panoramio.com/photo/1504144","upload_date":"26 March 2007","width":500},{"height":500,"latitude":-6.7628149999999998,"longitude":108.44550300000003,"owner_id":5455102,"owner_name":"Rachmat","owner_url":"http://www.panoramio.com/user/5455102","photo_file_url":"http://mw2.google.com/mw-panoramio/photos/medium/46825097.jpg","photo_id":46825097,"photo_title":"Sindang Mekar village","photo_url":"http://www.panoramio.com/photo/46825097","upload_date":"20 January 2011","width":375},{"height":375,"latitude":-6.7100970000000002,"longitude":108.55847199999999,"owner_id":2361881,"owner_name":"deeje7","owner_url":"http://www.panoramio.com/user/2361881","photo_file_url":"http://mw2.google.com/mw-panoramio/photos/medium/15087850.jpg","photo_id":15087850,"photo_title":"Masjid At Taqwa","photo_url":"http://www.panoramio.com/photo/15087850","upload_date":"17 October 2008","width":500},{"height":375,"latitude":-6.7282109999999999,"longitude":108.545383,"owner_id":2435899,"owner_name":"sonald","owner_url":"http://www.panoramio.com/user/2435899","photo_file_url":"http://mw2.google.com/mw-panoramio/photos/medium/15763279.jpg","photo_id":15763279,"photo_title":"FE-Unswagati","photo_url":"http://www.panoramio.com/photo/15763279","upload_date":"07 November 2008","width":500},{"height":333,"latitude":-6.7199689999999999,"longitude":108.55024899999999,"owner_id":1930441,"owner_name":"adicrb","owner_url":"http://www.panoramio.com/user/1930441","photo_file_url":"http://mw2.google.com/mw-panoramio/photos/medium/11552524.jpg","photo_id":11552524,"photo_title":"galeri indosat cirebon","photo_url":"http://www.panoramio.com/photo/11552524","upload_date":"26 June 2008","width":500},{"height":375,"latitude":-6.7114669999999998,"longitude":108.56587500000001,"owner_id":1704964,"owner_name":"kusnanto","owner_url":"http://www.panoramio.com/user/1704964","photo_file_url":"http://mw2.google.com/mw-panoramio/photos/medium/11332546.jpg","photo_id":11332546,"photo_title":"Pos III Pelabuhan Cirebon","photo_url":"http://www.panoramio.com/photo/11332546","upload_date":"19 June 2008","width":500},{"height":350,"latitude":-6.7283980000000003,"longitude":108.57070299999999,"owner_id":102891,"owner_name":"herusidik","owner_url":"http://www.panoramio.com/user/102891","photo_file_url":"http://mw2.google.com/mw-panoramio/photos/medium/6764273.jpg","photo_id":6764273,"photo_title":"Salah satu sudut kraton Kasepuhan Cirebon","photo_url":"http://www.panoramio.com/photo/6764273","upload_date":"29 December 2007","width":500},{"height":375,"latitude":-6.7160539999999997,"longitude":108.55788200000001,"owner_id":102891,"owner_name":"herusidik","owner_url":"http://www.panoramio.com/user/102891","photo_file_url":"http://mw2.google.com/mw-panoramio/photos/medium/6753877.jpg","photo_id":6753877,"photo_title":"Rail way of Cirebon for Campaign","photo_url":"http://www.panoramio.com/photo/6753877","upload_date":"29 December 2007","width":500},{"height":500,"latitude":-6.7381200000000003,"longitude":108.56177700000001,"owner_id":1497430,"owner_name":"adealam","owner_url":"http://www.panoramio.com/user/1497430","photo_file_url":"http://mw2.google.com/mw-panoramio/photos/medium/18079845.jpg","photo_id":18079845,"photo_title":"Ma'had Dhiya'us Sunnah","photo_url":"http://www.panoramio.com/photo/18079845","upload_date":"22 January 2009","width":375},{"height":375,"latitude":-6.7049510000000003,"longitude":108.55455600000001,"owner_id":943740,"owner_name":"Hendry.umar","owner_url":"http://www.panoramio.com/user/943740","photo_file_url":"http://mw2.google.com/mw-panoramio/photos/medium/18495517.jpg","photo_id":18495517,"photo_title":"Water Tank Tower","photo_url":"http://www.panoramio.com/photo/18495517","upload_date":"03 February 2009","width":500},{"height":378,"latitude":-6.7150449999999999,"longitude":108.550715,"owner_id":7584150,"owner_name":"Devitapra","owner_url":"http://www.panoramio.com/user/7584150","photo_file_url":"http://mw2.google.com/mw-panoramio/photos/medium/93619486.jpg","photo_id":93619486,"photo_title":"Batas Kota Cirebon - Gerbang Kota","photo_url":"http://www.panoramio.com/photo/93619486","upload_date":"24 July 2013","width":500},{"height":378,"latitude":-6.7058099999999996,"longitude":108.505354,"owner_id":7584150,"owner_name":"Devitapra","owner_url":"http://www.panoramio.com/user/7584150","photo_file_url":"http://mw2.google.com/mw-panoramio/photos/medium/93620026.jpg","photo_id":93620026,"photo_title":"Macan Siliwangi Koramil Weru, Cirebon, Jawa Barat","photo_url":"http://www.panoramio.com/photo/93620026","upload_date":"24 July 2013","width":500},{"height":378,"latitude":-6.688733,"longitude":108.42750599999999,"owner_id":7584150,"owner_name":"Devitapra","owner_url":"http://www.panoramio.com/user/7584150","photo_file_url":"http://mw2.google.com/mw-panoramio/photos/medium/93619393.jpg","photo_id":93619393,"photo_title":"Proyek Tol CIPAL, Palimanan","photo_url":"http://www.panoramio.com/photo/93619393","upload_date":"24 July 2013","width":500},{"height":378,"latitude":-6.7018890000000004,"longitude":108.490934,"owner_id":7584150,"owner_name":"Devitapra","owner_url":"http://www.panoramio.com/user/7584150","photo_file_url":"http://mw2.google.com/mw-panoramio/photos/medium/93620085.jpg","photo_id":93620085,"photo_title":"Polsek Weru, Cirebon","photo_url":"http://www.panoramio.com/photo/93620085","upload_date":"24 July 2013","width":500},{"height":375,"latitude":-6.7405439999999999,"longitude":108.55623,"owner_id":2637600,"owner_name":"Gunarto Pituruh","owner_url":"http://www.panoramio.com/user/2637600","photo_file_url":"http://mw2.google.com/mw-panoramio/photos/medium/26411744.jpg","photo_id":26411744,"photo_title":"The Red-White Flag","photo_url":"http://www.panoramio.com/photo/26411744","upload_date":"03 September 2009","width":500},{"height":375,"latitude":-6.852373,"longitude":108.49062900000001,"owner_id":3953282,"owner_name":"Lis_Ca","owner_url":"http://www.panoramio.com/user/3953282","photo_file_url":"http://mw2.google.com/mw-panoramio/photos/medium/36275240.jpg","photo_id":36275240,"photo_title":"Bendung Sitengah","photo_url":"http://www.panoramio.com/photo/36275240","upload_date":"02 June 2010","width":500},{"height":500,"latitude":-6.7305390000000003,"longitude":108.556504,"owner_id":3105857,"owner_name":"edi angteksar","owner_url":"http://www.panoramio.com/user/3105857","photo_file_url":"http://mw2.google.com/mw-panoramio/photos/medium/21289137.jpg","photo_id":21289137,"photo_title":"TL KESAMBI RSUDGJ","photo_url":"http://www.panoramio.com/photo/21289137","upload_date":"16 April 2009","width":375},{"height":375,"latitude":-6.7212750000000003,"longitude":108.57092899999998,"owner_id":4457451,"owner_name":"Mas Wie Cool","owner_url":"http://www.panoramio.com/user/4457451","photo_file_url":"http://mw2.google.com/mw-panoramio/photos/medium/35774182.jpg","photo_id":35774182,"photo_title":"SMP Negeri 13 Kota Cirebon","photo_url":"http://www.panoramio.com/photo/35774182","upload_date":"21 May 2010","width":500},{"height":375,"latitude":-6.7266880000000002,"longitude":108.464511,"owner_id":1731172,"owner_name":"Fajar Abdillah","owner_url":"http://www.panoramio.com/user/1731172","photo_file_url":"http://mw2.google.com/mw-panoramio/photos/medium/93092034.jpg","photo_id":93092034,"photo_title":"IPHHK PT. Gerbang Surya Permai Rotan","photo_url":"http://www.panoramio.com/photo/93092034","upload_date":"14 July 2013","width":500},{"height":375,"latitude":-6.7131230000000004,"longitude":108.53959999999999,"owner_id":735310,"owner_name":"Suryo Novantara","owner_url":"http://www.panoramio.com/user/735310","photo_file_url":"http://mw2.google.com/mw-panoramio/photos/medium/15087618.jpg","photo_id":15087618,"photo_title":"Convention Hall - Cirebon Islamic Centre (2008)","photo_url":"http://www.panoramio.com/photo/15087618","upload_date":"17 October 2008","width":500},{"height":375,"latitude":-6.7353709999999998,"longitude":108.546177,"owner_id":1878136,"owner_name":"smaskur","owner_url":"http://www.panoramio.com/user/1878136","photo_file_url":"http://mw2.google.com/mw-panoramio/photos/medium/11284432.jpg","photo_id":11284432,"photo_title":"rumahnya Adi Candri, Karang Jalak.","photo_url":"http://www.panoramio.com/photo/11284432","upload_date":"17 June 2008","width":500},{"height":398,"latitude":-6.709613,"longitude":108.551424,"owner_id":2844725,"owner_name":"fauhan","owner_url":"http://www.panoramio.com/user/2844725","photo_file_url":"http://mw2.google.com/mw-panoramio/photos/medium/19029221.jpg","photo_id":19029221,"photo_title":"SMPN 5 Cirebon","photo_url":"http://www.panoramio.com/photo/19029221","upload_date":"16 February 2009","width":500},{"height":375,"latitude":-6.7125510000000004,"longitude":108.53571099999999,"owner_id":6430319,"owner_name":"akhmad fauzi manpower","owner_url":"http://www.panoramio.com/user/6430319","photo_file_url":"http://mw2.google.com/mw-panoramio/photos/medium/62069959.jpg","photo_id":62069959,"photo_title":"Kolam Renang Apita Cirebon","photo_url":"http://www.panoramio.com/photo/62069959","upload_date":"13 November 2011","width":500},{"height":375,"latitude":-6.7262740000000001,"longitude":108.462457,"owner_id":1731172,"owner_name":"Fajar Abdillah","owner_url":"http://www.panoramio.com/user/1731172","photo_file_url":"http://mw2.google.com/mw-panoramio/photos/medium/93879069.jpg","photo_id":93879069,"photo_title":"IPHHK PT. Gerbang Surya Permai Rotan","photo_url":"http://www.panoramio.com/photo/93879069","upload_date":"29 July 2013","width":500},{"height":500,"latitude":-6.8424358367919922,"longitude":108.64608001708984,"owner_id":4734549,"owner_name":"Ir. Bambang Sutrisno","owner_url":"http://www.panoramio.com/user/4734549","photo_file_url":"http://mw2.google.com/mw-panoramio/photos/medium/44113482.jpg","photo_id":44113482,"photo_title":"PNPM MP DESA KARANGMALANG KEC. KARANGSEMBUNG KAB. CIREBON","photo_url":"http://www.panoramio.com/photo/44113482","upload_date":"24 November 2010","width":375},{"height":375,"latitude":-6.7575010000000004,"longitude":108.52063199999998,"owner_id":3953282,"owner_name":"Lis_Ca","owner_url":"http://www.panoramio.com/user/3953282","photo_file_url":"http://mw2.google.com/mw-panoramio/photos/medium/32577090.jpg","photo_id":32577090,"photo_title":"SAWAHKU DILEMBAH CIREMAI","photo_url":"http://www.panoramio.com/photo/32577090","upload_date":"25 February 2010","width":500},{"height":345,"latitude":-6.7894199999999998,"longitude":108.63090299999999,"owner_id":4061816,"owner_name":"blue book","owner_url":"http://www.panoramio.com/user/4061816","photo_file_url":"http://mw2.google.com/mw-panoramio/photos/medium/38902399.jpg","photo_id":38902399,"photo_title":"Mount Slamet from Cirebon","photo_url":"http://www.panoramio.com/photo/38902399","upload_date":"06 August 2010","width":500},{"height":375,"latitude":-6.7155849999999999,"longitude":108.533163,"owner_id":2813539,"owner_name":"mohamad sadli","owner_url":"http://www.panoramio.com/user/2813539","photo_file_url":"http://mw2.google.com/mw-panoramio/photos/medium/18815222.jpg","photo_id":18815222,"photo_title":"STIKes Cirebon","photo_url":"http://www.panoramio.com/photo/18815222","upload_date":"10 February 2009","width":500},{"height":375,"latitude":-6.6946599999999998,"longitude":108.480171,"owner_id":1731172,"owner_name":"Fajar Abdillah","owner_url":"http://www.panoramio.com/user/1731172","photo_file_url":"http://mw2.google.com/mw-panoramio/photos/medium/96188343.jpg","photo_id":96188343,"photo_title":"IPHHK PK. Akadir","photo_url":"http://www.panoramio.com/photo/96188343","upload_date":"13 September 2013","width":500},{"height":375,"latitude":-6.6948470000000002,"longitude":108.499475,"owner_id":1731172,"owner_name":"Fajar Abdillah","owner_url":"http://www.panoramio.com/user/1731172","photo_file_url":"http://mw2.google.com/mw-panoramio/photos/medium/98303774.jpg","photo_id":98303774,"photo_title":"IPHHK CV. Mulya Pratama Indah","photo_url":"http://www.panoramio.com/photo/98303774","upload_date":"25 October 2013","width":500},{"height":375,"latitude":-6.7524709999999999,"longitude":108.588559,"owner_id":1731172,"owner_name":"Fajar Abdillah","owner_url":"http://www.panoramio.com/user/1731172","photo_file_url":"http://mw2.google.com/mw-panoramio/photos/medium/96187792.jpg","photo_id":96187792,"photo_title":"IPHHK CV. National Rattan","photo_url":"http://www.panoramio.com/photo/96187792","upload_date":"13 September 2013","width":500},{"height":375,"latitude":-6.7026389999999996,"longitude":108.460604,"owner_id":1731172,"owner_name":"Fajar Abdillah","owner_url":"http://www.panoramio.com/user/1731172","photo_file_url":"http://mw2.google.com/mw-panoramio/photos/medium/96187688.jpg","photo_id":96187688,"photo_title":"IPHHK CV. Furindo","photo_url":"http://www.panoramio.com/photo/96187688","upload_date":"13 September 2013","width":500},{"height":375,"latitude":-6.7130700000000001,"longitude":108.561133,"owner_id":3089341,"owner_name":"skyligh85","owner_url":"http://www.panoramio.com/user/3089341","photo_file_url":"http://mw2.google.com/mw-panoramio/photos/medium/21123971.jpg","photo_id":21123971,"photo_title":"Pusat Grosir Cirebon1","photo_url":"http://www.panoramio.com/photo/21123971","upload_date":"12 April 2009","width":500},{"height":375,"latitude":-6.7056699999999996,"longitude":108.50811099999999,"owner_id":3181031,"owner_name":"Abu Marwah","owner_url":"http://www.panoramio.com/user/3181031","photo_file_url":"http://mw2.google.com/mw-panoramio/photos/medium/47213157.jpg","photo_id":47213157,"photo_title":"Plered","photo_url":"http://www.panoramio.com/photo/47213157","upload_date":"28 January 2011","width":500},{"height":375,"latitude":-6.69909,"longitude":108.48517300000003,"owner_id":6430319,"owner_name":"akhmad fauzi manpower","owner_url":"http://www.panoramio.com/user/6430319","photo_file_url":"http://mw2.google.com/mw-panoramio/photos/medium/62069773.jpg","photo_id":62069773,"photo_title":"Gerbang Tol Plumbon 2","photo_url":"http://www.panoramio.com/photo/62069773","upload_date":"13 November 2011","width":500},{"height":400,"latitude":-6.807429,"longitude":108.50766099999998,"owner_id":3953282,"owner_name":"Lis_Ca","owner_url":"http://www.panoramio.com/user/3953282","photo_file_url":"http://mw2.google.com/mw-panoramio/photos/medium/34338132.jpg","photo_id":34338132,"photo_title":"Bendung Cirongkob","photo_url":"http://www.panoramio.com/photo/34338132","upload_date":"13 April 2010","width":500},{"height":375,"latitude":-6.7761680000000002,"longitude":108.51847499999997,"owner_id":3953282,"owner_name":"Lis_Ca","owner_url":"http://www.panoramio.com/user/3953282","photo_file_url":"http://mw2.google.com/mw-panoramio/photos/medium/49062616.jpg","photo_id":49062616,"photo_title":"Indahnya Gronggong","photo_url":"http://www.panoramio.com/photo/49062616","upload_date":"06 March 2011","width":500},{"height":400,"latitude":-6.8050170000000003,"longitude":108.48154699999998,"owner_id":3953282,"owner_name":"Lis_Ca","owner_url":"http://www.panoramio.com/user/3953282","photo_file_url":"http://mw2.google.com/mw-panoramio/photos/medium/34338156.jpg","photo_id":34338156,"photo_title":"Bendung Cirembay","photo_url":"http://www.panoramio.com/photo/34338156","upload_date":"13 April 2010","width":500},{"height":400,"latitude":-6.8113289999999997,"longitude":108.473731,"owner_id":3953282,"owner_name":"Lis_Ca","owner_url":"http://www.panoramio.com/user/3953282","photo_file_url":"http://mw2.google.com/mw-panoramio/photos/medium/36274030.jpg","photo_id":36274030,"photo_title":"Bendung Cigolempang","photo_url":"http://www.panoramio.com/photo/36274030","upload_date":"02 June 2010","width":500},{"height":375,"latitude":-6.7353180000000004,"longitude":108.536693,"owner_id":60471,"owner_name":"denucup","owner_url":"http://www.panoramio.com/user/60471","photo_file_url":"http://mw2.google.com/mw-panoramio/photos/medium/20684560.jpg","photo_id":20684560,"photo_title":"STM Negeri 1 Cirebon","photo_url":"http://www.panoramio.com/photo/20684560","upload_date":"01 April 2009","width":500},{"height":375,"latitude":-6.739026,"longitude":108.547411,"owner_id":3011686,"owner_name":"supriatna_ekspres","owner_url":"http://www.panoramio.com/user/3011686","photo_file_url":"http://mw2.google.com/mw-panoramio/photos/medium/20434127.jpg","photo_id":20434127,"photo_title":"Front of Goa Sunyaragi, Cirebon","photo_url":"http://www.panoramio.com/photo/20434127","upload_date":"25 March 2009","width":500},{"height":375,"latitude":-6.8087819999999999,"longitude":108.464338,"owner_id":3953282,"owner_name":"Lis_Ca","owner_url":"http://www.panoramio.com/user/3953282","photo_file_url":"http://mw2.google.com/mw-panoramio/photos/medium/36275229.jpg","photo_id":36275229,"photo_title":"Bendung Sigaling","photo_url":"http://www.panoramio.com/photo/36275229","upload_date":"02 June 2010","width":500},{"height":375,"latitude":-6.7104169999999996,"longitude":108.53652099999999,"owner_id":482350,"owner_name":"ssulistio","owner_url":"http://www.panoramio.com/user/482350","photo_file_url":"http://mw2.google.com/mw-panoramio/photos/medium/62813455.jpg","photo_id":62813455,"photo_title":"Apita Green - Tuparev St","photo_url":"http://www.panoramio.com/photo/62813455","upload_date":"28 November 2011","width":500},{"height":375,"latitude":-6.732526,"longitude":108.58715100000001,"owner_id":2361881,"owner_name":"deeje7","owner_url":"http://www.panoramio.com/user/2361881","photo_file_url":"http://mw2.google.com/mw-panoramio/photos/medium/15089231.jpg","photo_id":15089231,"photo_title":"Kejawanan","photo_url":"http://www.panoramio.com/photo/15089231","upload_date":"17 October 2008","width":500}]}